category,address_raw,address_processed,address_reversed,longitude,latitude
AI-generated Address,"789 Taft Ave., Barangay Malate, Manila","789 Taft Avenue, Barangay Malate, Manila","Taft Avenue, Barangay 678, Barangay 694, Malate, Fifth District, Manila, Capital District, Metro Manila, 1004, Pilipinas",120.9896565,14.5737742
AI-generated Address,"789 Taft Ave., Barangay Malate, Manila","789 Taft Avenue, Barangay Malate, Manila.","Taft Avenue, Barangay 678, Barangay 694, Malate, Fifth District, Manila, Capital District, Metro Manila, 1004, Pilipinas",120.9896565,14.5737742
AI-generated Address,"Blk 7, Lot 23, Jasmine St., Brgy. San Francisco, General Trias, Cavite","Jasmine Street, San Francisco, General Trias, Cavite","Jasmine Street, Asian Leaf, San Francisco, General Trias, Cavite, Calabarzon, 4107, Pilipinas",120.9270769,14.2974075
AI-generated Address,"55 Ipil St., Brgy. Poblacion, Davao City","55 Ipil Street, Barangay Poblacion, Davao City.","Ipil Street, Garden Heights, 19-B Garcia Heights, Poblacion, Davao City, Davao Region, 8000, Pilipinas",125.6066848,7.0918863
AI-generated Address,"55 Ipil St., Brgy. Poblacion, Davao City","55 Ipil Street, Barangay Poblacion, Davao City","Ipil Street, Garden Heights, 19-B Garcia Heights, Poblacion, Davao City, Davao Region, 8000, Pilipinas",125.6066848,7.0918863
AI-generated Address,"55 Ipil St., Brgy. Poblacion, Davao City","Ipil Street, Barangay Poblacion, Davao City","Ipil Street, Garden Heights, 19-B Garcia Heights, Poblacion, Davao City, Davao Region, 8000, Pilipinas",125.6061297,7.0919313
AI-generated Address,"12 J.P. Rizal St., Brgy. Poblacion, Makati City","12 J.P. Rizal Street, Poblacion, Makati City","Jose P. Rizal Avenue, Bel-Air Village Phase I and II, Poblacion, District I, Makati, Southern Manila District, Metro Manila, 1210, Pilipinas",121.0310891,14.5675641
AI-generated Address,"123 Alabang Zapote Road, Alabang, Muntinlupa City","123 Alabang Zapote Road, Alabang, Muntinlupa City","Alabang-Zapote Road, Filinvest City, Muntinlupa, Southern Manila District, Metro Manila, 1781, Pilipinas",121.0423282,14.4206007
AI-generated Address,"123 Alabang Zapote Road, Alabang, Muntinlupa City","Alabang Zapote Road, Alabang, Muntinlupa City","Alabang-Zapote Road, Filinvest City, Muntinlupa, Southern Manila District, Metro Manila, 1781, Pilipinas",121.0423282,14.4206007
AI-generated Address,"789 J.P. Rizal Street, Guadalupe Viejo, Makati City","789 Jose P. Rizal Street, Guadalupe Viejo, Makati City","Jose P. Rizal Avenue, Guadalupe Viejo, District II, Makati, Southern Manila District, Metro Manila, 1210, Pilipinas",121.0377245,14.5669769
AI-generated Address,"789 J.P. Rizal Street, Guadalupe Viejo, Makati City","789 J.P. Rizal Street, Guadalupe Viejo, Makati City","Jose P. Rizal Avenue, Guadalupe Viejo, District II, Makati, Southern Manila District, Metro Manila, 1210, Pilipinas",121.0377245,14.5669769
AI-generated Address,"741 Quezon Avenue, Sto. Domingo, Quezon City","741 Quezon Avenue, Santo Domingo, Quezon City","Quezon Avenue, Santo Domingo, 1st District, Quezon City, Eastern Manila District, Metro Manila, 1114, Pilipinas",121.0147063,14.6297882
AI-generated Address,"369 Governor Camins Avenue, Sta. Maria, Zamboanga City","369 Governor Camins Avenue, Santa Maria, Zamboanga City","Governor Camins Avenue, Zone Ⅱ, Santa Maria, Zamboanga City, Zamboanga Peninsula, 7000, Pilipinas",122.0723781,6.9211004
AI-generated Address,"789 Taft Avenue, Barangay Malate, Manila City, Metro Manila, Philippines","789 Taft Avenue, Barangay Malate, Manila City, Metro Manila, Philippines","Taft Avenue, Barangay 678, Barangay 694, Malate, Fifth District, Manila, Capital District, Metro Manila, 1004, Pilipinas",120.9896565,14.5737742
AI-generated Address,"789 Taft Avenue, Barangay Malate, Manila City, Metro Manila, Philippines","Taft Avenue, Barangay Malate, City of Manila, Metro Manila, Philippines.","Taft Avenue, Barangay 678, Barangay 694, Malate, Fifth District, Manila, Capital District, Metro Manila, 1004, Pilipinas",120.9896565,14.5737742
AI-generated Address,"789 Taft Avenue, Barangay Malate, Manila City, Metro Manila, Philippines","789 Taft Avenue, Barangay Malate, City of Manila, Metro Manila, Philippines","Taft Avenue, Barangay 678, Barangay 694, Malate, Fifth District, Manila, Capital District, Metro Manila, 1004, Pilipinas",120.9896565,14.5737742
AI-generated Address,"1619 Roxas Boulevard, Barangay Malate, Manila City, Metro Manila, Philippines","1619 Roxas Boulevard, Barangay Malate, Manila, Philippines.","Roxas Boulevard, Barangay 76, Malate, Fifth District, Manila, Capital District, Metro Manila, 1004, Pilipinas",120.9873512,14.5588583
AI-generated Address,"1619 Roxas Boulevard, Barangay Malate, Manila City, Metro Manila, Philippines","1619 Roxas Boulevard, Barangay Malate, Manila City, Metro Manila, Philippines","Roxas Boulevard, Barangay 76, Malate, Fifth District, Manila, Capital District, Metro Manila, 1004, Pilipinas",120.9873512,14.5588583
AI-generated Address,"1619 Roxas Boulevard, Barangay Malate, Manila City, Metro Manila, Philippines","1619 Roxas Boulevard, Barangay Malate, City of Manila, Metro Manila, Philippines","Roxas Boulevard, Barangay 76, Malate, Fifth District, Manila, Capital District, Metro Manila, 1004, Pilipinas",120.9873512,14.5588583
AI-generated Address,"Barangay Poblacion 2, Muntinlupa City","Barangay Poblacion 2, Muntinlupa City","Barangay Buli Road, Buli, Muntinlupa, Southern Manila District, Metro Manila, 1771, Pilipinas",121.0517701,14.4421701
AI-generated Address,"Barangay Poblacion 2, Muntinlupa City","Barangay Poblacion 2, Muntinlupa City.","Barangay Buli Road, Buli, Muntinlupa, Southern Manila District, Metro Manila, 1771, Pilipinas",121.0517701,14.4421701
AI-generated Address,"Lot 18 Block 6 Palm Village, Davao City","Palm Village, Davao City","Palm Village, Poblacion, Davao City, Davao Region, Pilipinas",125.61533857563458,7.091868
AI-generated Address,"88 Mabini Street, Poblacion, Makati City","88 Mabini Street, Poblacion, Makati City","A. Mabini Street, Poblacion, District I, Makati, Southern Manila District, Metro Manila, 1210, Pilipinas",121.0303442,14.5696341
AI-generated Address,"88 Mabini Street, Poblacion, Makati City","Mabini Street, Poblacion, Makati City","A. Mabini Street, Poblacion, District I, Makati, Southern Manila District, Metro Manila, 1210, Pilipinas",121.0303442,14.5696341
AI-generated Address,"9101 Brgy. Burol, Dasmarinas City, Cavite","Brgy. Burol, Dasmarinas City, Cavite","Burol Main Barangay Hall, Estanislao Carungcong Road, Burol, Dasmariñas, Cavite, Calabarzon, 4114, Pilipinas",120.94905942076431,14.3293444
AI-generated Address,"6789 Brgy. Tinago, Cebu City, Cebu","Brgy. Tinago, Cebu City, Cebu","Tinago Barangay Hall, C. Arellano Boulevard, Tinago, Cebu City, Central Visayas, 6000, Pilipinas",123.9087757,10.29700965
AI-generated Address,"6789 Brgy. Tinago, Cebu City, Cebu","Brgy. Tinago, Cebu City, Cebu.","Tinago Barangay Hall, C. Arellano Boulevard, Tinago, Cebu City, Central Visayas, 6000, Pilipinas",123.9087757,10.29700965
AI-generated Address,"6789 Brgy. Tinago, Cebu City, Cebu","Brgy Tinago, Cebu City, Cebu","Tinago Barangay Hall, C. Arellano Boulevard, Tinago, Cebu City, Central Visayas, 6000, Pilipinas",123.9087757,10.29700965
AI-generated Address,"1357 Brgy. San Francisco, Quezon City, Metro Manila","Brgy. San Francisco, Quezon City, Metro Manila","San Antonio Barangay Hall, 323, Fernando Poe Jr. Avenue, San Antonio, San Francisco del Monte, 1st District, Quezon City, Eastern Manila District, Metro Manila, 1105, Pilipinas",121.01876486957002,14.654558
AI-generated Address,"222 Davao Rd., Barangay Agdao, Davao City","222 Davao Road, Barangay Agdao, Davao City","Davao City Coastal Road, San Roque, Leon Garcia, Agdao District, Davao City, Davao Region, 8000, Pilipinas",125.6315052,7.0854443
AI-generated Address,"222 Davao Rd., Barangay Agdao, Davao City","222 Davao Road, Barangay Agdao, Davao City.","Davao City Coastal Road, San Roque, Leon Garcia, Agdao District, Davao City, Davao Region, 8000, Pilipinas",125.6315052,7.0854443
AI-generated Address,"Unit 302, Green Residences, Taft Avenue, Barangay Malate, Manila, Philippines","Green Residences, Taft Avenue, Barangay Malate, Manila, Philippines.","SM Green Residences, Taft Avenue, Barangay 726, Agno, Malate, Fifth District, Manila, Capital District, Metro Manila, 1004, Pilipinas",120.9924793607434,14.56737305
AI-generated Address,"Unit 302, Green Residences, Taft Avenue, Barangay Malate, Manila, Philippines","Green Residences, Taft Avenue, Barangay Malate, Manila, Philippines","SM Green Residences, Taft Avenue, Barangay 726, Agno, Malate, Fifth District, Manila, Capital District, Metro Manila, 1004, Pilipinas",120.9924793607434,14.56737305
AI-generated Address,"21 Roxas Boulevard, Barangay 76, Pasay City","Roxas Boulevard, Barangay 76, Pasay City","Roxas Boulevard, City Garden Town Homes, Barangay 76, Zone 10, District 1, Pasay, Southern Manila District, Metro Manila, 1308, Pilipinas",120.9925814,14.5351811
AI-generated Address,"21 Roxas Boulevard, Barangay 76, Pasay City","21 Roxas Boulevard, Barangay 76, Pasay City","Roxas Boulevard, City Garden Town Homes, Barangay 76, Zone 10, District 1, Pasay, Southern Manila District, Metro Manila, 1308, Pilipinas",120.9925814,14.5351811
AI-generated Address,"123 Mayon Street, Barangay Santa Mesa, Manila","123 Mayon Street, Santa Mesa, Manila","Mayon Street, Santa Teresita, Santa Mesa Heights, 1st District, Quezon City, Eastern Manila District, Metro Manila, 1114, Pilipinas",121.001582,14.618036
AI-generated Address,"Unit 301, Magnolia Residences, N Domingo St, New Manila, Quezon City","Magnolia Residences, N Domingo Street, New Manila, Quezon City","The Magnolia Residences Tower A, N. Domingo Street, Horseshoe Village, Kaunlaran, Cubao, 4th District, Quezon City, Eastern Manila District, Metro Manila, 1112, Pilipinas",121.03901969565216,14.6149518
AI-generated Address,"Brgy. Anunas, Angeles City, Pampanga, Central Luzon","Anunas, Angeles City, Pampanga, Central Luzon","Edilberto M. Ganzon Elementary School, Anunas, Purok 2, Angeles, Central Luzon, 2009, Pilipinas",120.55527649098674,15.15551425
AI-generated Address,"Brgy. Tabunok, Talisay City, Cebu","Brgy. Tabunok, Talisay City, Cebu","Jaclupan Barangay Hall, Toledo - Tabunok Road, Camp 4, Iba, Talisay, Cebu, Central Visayas, 6045, Pilipinas",123.81767336246828,10.3008606
AI-generated Address,"Brgy. Tabunok, Talisay City, Cebu","Brgy. Tabunok, Talisay City, Cebu.","Jaclupan Barangay Hall, Toledo - Tabunok Road, Camp 4, Iba, Talisay, Cebu, Central Visayas, 6045, Pilipinas",123.81767336246828,10.3008606
AI-generated Address,"45 Sampaguita Street, Ayala Alabang Village, Muntinlupa City","Sampaguita Street, Ayala Alabang Village, Muntinlupa City","Sampaguita Street, Ayala Alabang, Muntinlupa, Southern Manila District, Metro Manila, 1780, Pilipinas",121.0137593,14.3984468
AI-generated Address,"45 Sampaguita Street, Ayala Alabang Village, Muntinlupa City","45 Sampaguita Street, Ayala Alabang Village, Muntinlupa City","Sampaguita Street, Ayala Alabang, Muntinlupa, Southern Manila District, Metro Manila, 1780, Pilipinas",121.0137593,14.3984468
AI-generated Address,"Lot 2, Block 7, Dasmariñas Village, Makati City","Dasmariñas Village, Makati City","Dasmariñas Village, District I, Makati, Southern Manila District, Metro Manila, Pilipinas",121.02619788147592,14.54076535
AI-generated Address,"Lot 2, Block 7, Dasmariñas Village, Makati City","Dasmariñas Village, Makati City.","Dasmariñas Village, District I, Makati, Southern Manila District, Metro Manila, Pilipinas",121.02619788147592,14.54076535
AI-generated Address,"Barangay Bagumbayan, Quezon City","Barangay Bagumbayan, Quezon City","Bagumbayan Barangay Hall, San Roque, Bagumbayan, 3rd District, Quezon City, Eastern Manila District, Metro Manila, 1110, Pilipinas",121.08246445,14.60830155
AI-generated Address,"Lot 12, Bonifacio Global City, Taguig City","Bonifacio Global City, Taguig City","Fully Booked, B6, Bonifacio High Street, Fort Bonifacio, Taguig, Southern Manila District, Metro Manila, 1635, Pilipinas",121.0527688,14.5496723
AI-generated Address,"Lot 8, Block 2, Magallanes Village, Barangay Magallanes, Makati City","Magallanes Village, Barangay Magallanes, Makati City","Magallanes, EDSA, Ecology Village San EDSA Sector, Magallanes, District I, Makati, Southern Manila District, Metro Manila, 1232, Pilipinas",121.01933260268092,14.54197105
AI-generated Address,"P. Burgos Street, Barangay Poblacion, Makati City","P. Burgos Street, Poblacion, Makati City","P. Burgos Street, Bel-Air Village Phase I and II, Poblacion, District I, Makati, Southern Manila District, Metro Manila, 1210, Pilipinas",121.0298719,14.5634204
AI-generated Address,"124 Maginhawa Street, Sikatuna Village, Quezon City","124 Maginhawa Street, Sikatuna Village, Quezon City","Maginhawa Street, Sikatuna Village, Diliman, 4th District, Quezon City, Eastern Manila District, Metro Manila, 1101, Pilipinas",121.0611054,14.6423794
AI-generated Address,"Block 5 Lot 12 Dasmariñas Village, Makati City","Dasmariñas Village, Makati City.","Dasmariñas Village, District I, Makati, Southern Manila District, Metro Manila, Pilipinas",121.02619788147592,14.54076535
AI-generated Address,"Block 5 Lot 12 Dasmariñas Village, Makati City","Dasmariñas Village, Makati City","Dasmariñas Village, District I, Makati, Southern Manila District, Metro Manila, Pilipinas",121.02619788147592,14.54076535
AI-generated Address,"Unit 301, Tower A, Magnolia Residences, N. Domingo St., New Manila, Quezon City","Magnolia Residences, N. Domingo Street, New Manila, Quezon City","The Magnolia Residences Tower A, N. Domingo Street, Horseshoe Village, Kaunlaran, Cubao, 4th District, Quezon City, Eastern Manila District, Metro Manila, 1112, Pilipinas",121.03901969565216,14.6149518
AI-generated Address,"Lot 8, Block 12, Phase 2, BF Homes, Parañaque City","BF Homes, Parañaque City","NISSAN PARAÑAQUE CITY, Doctor A. Santos Avenue, Saint Rita Village, BF Homes, Parañaque, Southern Manila District, Metro Manila, 1700, Pilipinas",121.02940398270404,14.4595635
AI-generated Address,"Lot 8, Block 12, Phase 2, BF Homes, Parañaque City","BF Homes, Parañaque City.","NISSAN PARAÑAQUE CITY, Doctor A. Santos Avenue, Saint Rita Village, BF Homes, Parañaque, Southern Manila District, Metro Manila, 1700, Pilipinas",121.02940398270404,14.4595635
AI-generated Address,"45 Governor Drive, Barangay Mabuhay, Carmona, Cavite","45 Governor Drive, Barangay Mabuhay, Carmona, Cavite","Governor's Drive, Mabuhay, Carmona, Cavite, Calabarzon, 4116, Pilipinas",121.0388875,14.3105328
AI-generated Address,"125 Sapang Palay, Barangay Tungkong Mangga, San Jose del Monte, Bulacan","Barangay Tungkong Mangga, San Jose del Monte, Bulacan","Tungkong Mangga Barangay Hall, Bocaue Road, North Diamond Subdivision 1, Tungkong Mangga, San Jose del Monte, Bulacan, Central Luzon, 3023, Pilipinas",121.07619056216342,14.7891358
AI-generated Address,"125 Sapang Palay, Barangay Tungkong Mangga, San Jose del Monte, Bulacan","Barangay Tungkong Mangga, San Jose del Monte, Bulacan.","Tungkong Mangga Barangay Hall, Bocaue Road, North Diamond Subdivision 1, Tungkong Mangga, San Jose del Monte, Bulacan, Central Luzon, 3023, Pilipinas",121.07619056216342,14.7891358
AI-generated Address,"123 A. Bonifacio St., Barangay San Lorenzo, Makati City","123 A. Bonifacio Street, San Lorenzo, Makati City","A. Bonifacio Street, Ecology Village San Lorenzo Sector, Bangkal, District I, Makati, Southern Manila District, Metro Manila, 1233, Pilipinas",121.0158594,14.5416099
AI-generated Address,"45 Dapitan St., Brgy. Santa Cruz, Manila","Dapitan Street, Barangay Santa Cruz, Manila.","Dapitan Street, Barangay 319, Santa Cruz, Third District, Manila, Capital District, Metro Manila, 1015, Pilipinas",120.9861357,14.6097347
AI-generated Address,"45 Dapitan St., Brgy. Santa Cruz, Manila","45 Dapitan Street, Barangay Santa Cruz, Manila.","Dapitan Street, Barangay 319, Santa Cruz, Third District, Manila, Capital District, Metro Manila, 1015, Pilipinas",120.9861357,14.6097347
AI-generated Address,"45 Dapitan St., Brgy. Santa Cruz, Manila","Dapitan Street, Barangay Santa Cruz, Manila","Dapitan Street, Barangay 319, Santa Cruz, Third District, Manila, Capital District, Metro Manila, 1015, Pilipinas",120.9861357,14.6097347
AI-generated Address,"2 Roxas Blvd., Brgy. Malate, Manila","Roxas Boulevard, Barangay Malate, Manila","Roxas Boulevard, Barangay 76, Malate, Fifth District, Manila, Capital District, Metro Manila, 1004, Pilipinas",120.9873512,14.5588583
AI-generated Address,"2 Roxas Blvd., Brgy. Malate, Manila","2 Roxas Boulevard, Barangay Malate, Manila","Roxas Boulevard, Barangay 76, Malate, Fifth District, Manila, Capital District, Metro Manila, 1004, Pilipinas",120.9873512,14.5588583
AI-generated Address,"17 Polk Street, Greenhills, San Juan City, Metro Manila","Polk Street, Greenhills, San Juan City, Metro Manila.","Polk Street, Greenhills, 2nd District, San Juan, Eastern Manila District, Metro Manila, 1502, Pilipinas",121.0440849,14.6065822
AI-generated Address,"17 Polk Street, Greenhills, San Juan City, Metro Manila","17 Polk Street, Greenhills, San Juan City, Metro Manila","Polk Street, Greenhills, 2nd District, San Juan, Eastern Manila District, Metro Manila, 1502, Pilipinas",121.0440849,14.6065822
AI-generated Address,"17 Polk Street, Greenhills, San Juan City, Metro Manila","17 Polk Street, Greenhills, San Juan City, Metro Manila.","Polk Street, Greenhills, 2nd District, San Juan, Eastern Manila District, Metro Manila, 1502, Pilipinas",121.0440849,14.6065822
AI-generated Address,"Lot 15, Block 9, Palm Village, Makati City","Palm Village, Makati City","Palm Village, District II, Makati, Southern Manila District, Metro Manila, Pilipinas",121.041421939843,14.56162275
AI-generated Address,"Lot 15, Block 9, Palm Village, Makati City","Palm Village, Makati City.","Palm Village, District II, Makati, Southern Manila District, Metro Manila, Pilipinas",121.041421939843,14.56162275
AI-generated Address,"123 Maria Clara St., Barangka, Mandaluyong City","Maria Clara Street, Barangka, Mandaluyong City.","Maria Clara Street, Barangka Drive, Mandaluyong, Eastern Manila District, Metro Manila, 1211, Pilipinas",121.0392957,14.5735579
AI-generated Address,"123 Maria Clara St., Barangka, Mandaluyong City","Maria Clara Street, Barangka, Mandaluyong City","Maria Clara Street, Barangka Drive, Mandaluyong, Eastern Manila District, Metro Manila, 1211, Pilipinas",121.0392957,14.5735579
AI-generated Address,"65 President's Avenue, Barangay BF Homes, Parañaque City","President's Avenue, BF Homes, Parañaque City","SM Supermarket, President's Avenue, Saint Rita Village, BF Homes, Parañaque, Southern Manila District, Metro Manila, 1700, Pilipinas",121.0329139,14.4575461
AI-generated Address,"Barangay San Antonio, Makati City, Metro Manila","Barangay San Antonio, Makati City, Metro Manila","San Antonio Barangay Hall, Lumbayao Street, San Antonio, District I, Makati, Southern Manila District, Metro Manila, 1203, Pilipinas",121.0086306,14.5622446
AI-generated Address,"Barangay San Antonio, Makati City, Metro Manila","Barangay San Antonio, Makati City, Metro Manila.","San Antonio Barangay Hall, Lumbayao Street, San Antonio, District I, Makati, Southern Manila District, Metro Manila, 1203, Pilipinas",121.0086306,14.5622446
AI-generated Address,"Barangay Kapitolyo, Pasig City, Metro Manila","Barangay Kapitolyo, Pasig City, Metro Manila","Kapitolyo Barangay Hall, Santa Rosa Street, Capitol, Kapitolyo, Pasig, Eastern Manila District, Metro Manila, 1603, Pilipinas",121.0593126093954,14.5714336
AI-generated Address,"Barangay Kapitolyo, Pasig City, Metro Manila","Barangay Kapitolyo, Pasig City, Metro Manila.","Kapitolyo Barangay Hall, Santa Rosa Street, Capitol, Kapitolyo, Pasig, Eastern Manila District, Metro Manila, 1603, Pilipinas",121.0593126093954,14.5714336
AI-generated Address,"Barangay Poblacion, Makati City, Metro Manila","Barangay Poblacion, Makati City, Metro Manila","South Poblacion Barangay Day Care Center, General Luna Street, Bel-Air Village Phase I and II, Poblacion, District I, Makati, Southern Manila District, Metro Manila, 1210, Pilipinas",121.0310125,14.5649423
AI-generated Address,"Barangay Poblacion, Makati City, Metro Manila","Barangay Poblacion, Makati City, Metro Manila.","South Poblacion Barangay Day Care Center, General Luna Street, Bel-Air Village Phase I and II, Poblacion, District I, Makati, Southern Manila District, Metro Manila, 1210, Pilipinas",121.0310125,14.5649423
AI-generated Address,"Barangay San Lorenzo, Makati City, Metro Manila","Barangay San Lorenzo, Makati City, Metro Manila","San Lorenzo Barangay hall, Amorsolo Street, San Lorenzo, District I, Makati, Southern Manila District, Metro Manila, 1223, Pilipinas",121.01825449480717,14.54510955
AI-generated Address,"Barangay San Lorenzo, Makati City, Metro Manila","Barangay San Lorenzo, Makati City, Metro Manila.","San Lorenzo Barangay hall, Amorsolo Street, San Lorenzo, District I, Makati, Southern Manila District, Metro Manila, 1223, Pilipinas",121.01825449480717,14.54510955
AI-generated Address,"Barangay Mabolo, Cebu City, Cebu","Barangay Mabolo, Cebu City, Cebu.","Mabolo Barangay Hall, M.J. Cuenco Avenue, Mabolo, Cebu City, Central Visayas, 6000, Pilipinas",123.91406679899734,10.313735
AI-generated Address,"Barangay Mabolo, Cebu City, Cebu","Barangay Mabolo, Cebu City, Cebu","Mabolo Barangay Hall, M.J. Cuenco Avenue, Mabolo, Cebu City, Central Visayas, 6000, Pilipinas",123.91406679899734,10.313735
AI-generated Address,"Unit 302, Magnolia Residences, New Manila, Quezon City","Unit 302, Magnolia Residences, New Manila, Quezon City","Magnolia Residences, Cubao, 4th District, Quezon City, Eastern Manila District, Metro Manila, Pilipinas",121.03916654287616,14.61430795
AI-generated Address,"Unit 302, Magnolia Residences, New Manila, Quezon City","Unit 302, Magnolia Residences, New Manila, Quezon City.","Magnolia Residences, Cubao, 4th District, Quezon City, Eastern Manila District, Metro Manila, Pilipinas",121.03916654287616,14.61430795
AI-generated Address,"56 Maginhawa Street, Barangay UP Village, Diliman, Quezon City","56 Maginhawa St., UP Village, Diliman, Quezon City","Garlic Kitchen, 56, Maginhawa Street, UP Village, Diliman, 4th District, Quezon City, Eastern Manila District, Metro Manila, 1101, Pilipinas",121.0568538080808,14.6483764
AI-generated Address,"123 Brgy. San Antonio, Pasig City","Brgy. San Antonio, Pasig City","Barangay San Antonio Pocket Garden, San Antonio, Pasig, Eastern Manila District, Metro Manila, 1605, Pilipinas",121.06333594707496,14.5798518
AI-generated Address,"123 Brgy. San Antonio, Pasig City","Brgy. San Antonio, Pasig City.","Barangay San Antonio Pocket Garden, San Antonio, Pasig, Eastern Manila District, Metro Manila, 1605, Pilipinas",121.06333594707496,14.5798518
AI-generated Address,"Unit 301, Bel-Air Village, Makati City","Bel-Air Village, Makati City","Bel-Air Village Phase I and II, Poblacion, District I, Makati, Southern Manila District, Metro Manila, 1210, Pilipinas",121.0291406,14.5625073
AI-generated Address,"Unit 301, Bel-Air Village, Makati City","Bel-Air Village, Makati City.","Bel-Air Village Phase I and II, Poblacion, District I, Makati, Southern Manila District, Metro Manila, 1210, Pilipinas",121.0291406,14.5625073
AI-generated Address,"1563 Ipil St., Bacoor, Cavite","1563 Ipil Street, Bacoor, Cavite","Ipil Street, Meadowood Executive Village, Bacoor, Cavite, Calabarzon, 4102, Pilipinas",120.960213,14.4428035
AI-generated Address,"2021 Taft Avenue, Barangay Malate, Pasay City","2021 Taft Avenue, Barangay Malate, Pasay City","Taft Avenue, Barangay 33, Zone 3, District 1, Pasay, Southern Manila District, Metro Manila, 1234, Pilipinas",120.9958588,14.5595263
AI-generated Address,"2021 Taft Avenue, Barangay Malate, Pasay City","Taft Avenue, Barangay Malate, Pasay City","Taft Avenue, Barangay 33, Zone 3, District 1, Pasay, Southern Manila District, Metro Manila, 1234, Pilipinas",120.9958588,14.5595263
AI-generated Address,"987 Dahlia Street, Barangay Balulang, Cagayan de Oro City","987 Dahlia Street, Barangay Balulang, Cagayan de Oro City","Dahlia Street, Camella Homes, Balulang, Cagayan de Oro, Northern Mindanao, 9000, Pilipinas",124.6253131,8.4522365
AI-generated Address,"987 Dahlia Street, Barangay Balulang, Cagayan de Oro City","987 Dahlia Street, Brgy. Balulang, Cagayan de Oro City","Dahlia Street, Camella Homes, Balulang, Cagayan de Oro, Northern Mindanao, 9000, Pilipinas",124.6253131,8.4522365
AI-generated Address,"987 Dahlia Street, Barangay Balulang, Cagayan de Oro City","987 Dahlia Street, Brgy. Balulang, Cagayan de Oro City.","Dahlia Street, Camella Homes, Balulang, Cagayan de Oro, Northern Mindanao, 9000, Pilipinas",124.6253131,8.4522365
AI-generated Address,"654 Espana Boulevard, Barangay 461, Manila City","654 Espana Boulevard, Barangay 461, Manila City","España Boulevard, Barangay 462, Sampaloc, Fourth District, Manila, Capital District, Metro Manila, 1015, Pilipinas",120.9880423,14.6054991
AI-generated Address,"654 Espana Boulevard, Barangay 461, Manila City","Espana Boulevard, Barangay, Manila City","España Boulevard, Barangay 462, Sampaloc, Fourth District, Manila, Capital District, Metro Manila, 1015, Pilipinas",120.9883441,14.6057314
AI-generated Address,"852 Shaw Boulevard, Barangay Addition Hills, Mandaluyong City","852 Shaw Boulevard, Addition Hills, Mandaluyong City","Shaw Boulevard, Welfareville Compound, Addition Hills, Mandaluyong, Eastern Manila District, Metro Manila, 1550, Pilipinas",121.0359419,14.5894169
AI-generated Address,"123 Lantana St., New Manila, Quezon City","123 Lantana Street, New Manila, Quezon City","Lantana Street, Gilmore, Mariana, New Manila, 4th District, Quezon City, Eastern Manila District, Metro Manila, 1112, Pilipinas",121.0397488,14.6206008
AI-generated Address,"123 Lantana St., New Manila, Quezon City","123 Lantana Street, New Manila, Quezon City.","Lantana Street, Gilmore, Mariana, New Manila, 4th District, Quezon City, Eastern Manila District, Metro Manila, 1112, Pilipinas",121.0397488,14.6206008
AI-generated Address,"123 Lantana St., New Manila, Quezon City","Lantana Street, New Manila, Quezon City","Lantana Street, Gilmore, Mariana, New Manila, 4th District, Quezon City, Eastern Manila District, Metro Manila, 1112, Pilipinas",121.0397488,14.6206008
AI-generated Address,"Unit 301, Green Residences, Taft Ave., Malate, Manila","Green Residences, Taft Avenue, Malate, Manila","SM Green Residences, Taft Avenue, Barangay 726, Agno, Malate, Fifth District, Manila, Capital District, Metro Manila, 1004, Pilipinas",120.9924793607434,14.56737305
AI-generated Address,"123 Barangay Bagong Silangan, Quezon City","Barangay Bagong Silangan, Quezon City","Bagong Silangan Barangay Hall, Jupiter Street, Kumonoy, Bagong Silangan, 2nd District, Quezon City, Eastern Manila District, Metro Manila, 1119, Pilipinas",121.11054879662204,14.69784755
AI-generated Address,"123 Barangay Bagong Silangan, Quezon City","Barangay Bagong Silangan, Quezon City.","Bagong Silangan Barangay Hall, Jupiter Street, Kumonoy, Bagong Silangan, 2nd District, Quezon City, Eastern Manila District, Metro Manila, 1119, Pilipinas",121.11054879662204,14.69784755
AI-generated Address,"369 Barangay Malabanias, Angeles City","Barangay Malabanias, Angeles City","Barangay Hall Malabanias, Pagasa Street, Malabanias, Ninoy Aquino, Angeles, Central Luzon, 2009, Pilipinas",120.58981404987914,15.1515624
AI-generated Address,"369 Barangay Malabanias, Angeles City","Barangay Malabanias, Angeles City.","Barangay Hall Malabanias, Pagasa Street, Malabanias, Ninoy Aquino, Angeles, Central Luzon, 2009, Pilipinas",120.58981404987914,15.1515624
AI-generated Address,"Unit 702, Green Residences, Taft Avenue, Manila","Green Residences, Taft Avenue, Manila","SM Green Residences, Taft Avenue, Barangay 726, Agno, Malate, Fifth District, Manila, Capital District, Metro Manila, 1004, Pilipinas",120.9924793607434,14.56737305
AI-generated Address,"9101 España Blvd., Barangay 461, Manila City","9101 España Boulevard, Barangay 461, Manila City.","España Boulevard, Barangay 462, Sampaloc, Fourth District, Manila, Capital District, Metro Manila, 1015, Pilipinas",120.9880423,14.6054991
AI-generated Address,"9101 España Blvd., Barangay 461, Manila City","9101 España Boulevard, Barangay 461, City of Manila","España Boulevard, Barangay 462, Sampaloc, Fourth District, Manila, Capital District, Metro Manila, 1015, Pilipinas",120.9880423,14.6054991
AI-generated Address,"9101 España Blvd., Barangay 461, Manila City","9101 España Boulevard, Barangay 461, Manila City","España Boulevard, Barangay 462, Sampaloc, Fourth District, Manila, Capital District, Metro Manila, 1015, Pilipinas",120.9880423,14.6054991
AI-generated Address,"789 Davao Road, Barangay Buhangin, Davao City","789 Davao Road, Barangay Buhangin, Davao City","Carlos P. Garcia Highway, Sandawa Village Phase 2, Santa Teresita, Buhangin, Davao City, Davao Region, 8000, Pilipinas",125.6163399,7.1097592
AI-generated Address,"789 Davao Road, Barangay Buhangin, Davao City","789 Davao Road, Buhangin, Davao City","Carlos P. Garcia Highway, Sandawa Village Phase 2, Santa Teresita, Buhangin, Davao City, Davao Region, 8000, Pilipinas",125.6163399,7.1097592
AI-generated Address,"234 Bacolod Street, Barangay Mandalagan, Bacolod City","Bacolod Street, Barangay Mandalagan, Bacolod City","AMA Computer College - Bacolod Campus, 21st Street, Sibuyas, Barangay 5, Downtown, Bacolod-1, Bacolod, Western Visayas, 6100, Pilipinas",122.9571799,10.6822441
AI-generated Address,"25 Taft Avenue, Barangay 710, Manila City","25 Taft Avenue, Barangay 710, Manila City","Taft Avenue, Barangay 657, Intramuros, Fifth District, Manila, Capital District, Metro Manila, 1002, Pilipinas",120.9807926,14.5897443
AI-generated Address,"25 Taft Avenue, Barangay 710, Manila City","Taft Avenue, Barangay 710, Manila City","Taft Avenue, Barangay 657, Intramuros, Fifth District, Manila, Capital District, Metro Manila, 1002, Pilipinas",120.9807926,14.5897443
AI-generated Address,"25 Taft Avenue, Barangay 710, Manila City","25 Taft Avenue, Barangay 710, Manila City.","Taft Avenue, Barangay 657, Intramuros, Fifth District, Manila, Capital District, Metro Manila, 1002, Pilipinas",120.9807926,14.5897443
AI-generated Address,"Lot 5, Purok 6, Barangay San Isidro, Davao City","Barangay San Isidro, Davao City","San Isidro, Davao City, Davao Region, 8000, Pilipinas",125.6365479,7.2586906
AI-generated Address,"Lot 5, Purok 6, Barangay San Isidro, Davao City","Barangay San Isidro, Davao City.","San Isidro, Davao City, Davao Region, 8000, Pilipinas",125.6365479,7.2586906
AI-generated Address,"Lot 5, Block 12, Phase 2, UP Village, Quezon City","Quezon City, UP Village","UP Village, Diliman, 4th District, Quezon City, Eastern Manila District, Metro Manila, 1101, Pilipinas",121.0568891,14.648845
AI-generated Address,"Lot 5, Block 12, Phase 2, UP Village, Quezon City","UP Village, Quezon City","UP Village, Diliman, 4th District, Quezon City, Eastern Manila District, Metro Manila, 1101, Pilipinas",121.0568891,14.648845
AI-generated Address,"Lot 5, Block 12, Phase 2, UP Village, Quezon City","Phase 2, UP Village, Quezon City","UP Village, Diliman, 4th District, Quezon City, Eastern Manila District, Metro Manila, 1101, Pilipinas",121.0568891,14.648845
AI-generated Address,"45 Mabini Street, Barangay Poblacion, Makati City","Mabini Street, Poblacion, Makati City","A. Mabini Street, Poblacion, District I, Makati, Southern Manila District, Metro Manila, 1210, Pilipinas",121.0303442,14.5696341
AI-generated Address,"25 Dapitan Street, Barangay Santa Mesa, Manila City","Barangay Santa Mesa, Manila City","Santa Teresita Barangay Sports Centre, Mayon Street, Santa Teresita, Santa Mesa Heights, 1st District, Quezon City, Eastern Manila District, Metro Manila, 1114, Pilipinas",120.9997435,14.6224602
AI-generated Address,"123 Mabini Street, Barangay Poblacion, Makati City","Mabini Street, Poblacion, Makati City","A. Mabini Street, Poblacion, District I, Makati, Southern Manila District, Metro Manila, 1210, Pilipinas",121.0303442,14.5696341
AI-generated Address,"Block 12 Lot 5, United San Pedro Subdivision, San Pedro, Laguna","United San Pedro Subdivision, San Pedro, Laguna","United San Pedro Subdivision, Sitio Maharlika, San Pedro, Laguna, Calabarzon, 4023, Pilipinas",121.04928164945063,14.3634466
AI-generated Address,"Block 12 Lot 5, United San Pedro Subdivision, San Pedro, Laguna","United San Pedro Subdivision, San Pedro, Laguna.","United San Pedro Subdivision, Sitio Maharlika, San Pedro, Laguna, Calabarzon, 4023, Pilipinas",121.04928164945063,14.3634466
AI-generated Address,"Brgy. Poblacion, Batangas City","Barangay Poblacion, Batangas City","Barangay 5, Poblacion, Batangas, Calabarzon, 4200, Pilipinas",121.0609596,13.7570596
AI-generated Address,"Brgy. Poblacion, Batangas City","Brgy. Poblacion, Batangas City","Barangay 5, Poblacion, Batangas, Calabarzon, 4200, Pilipinas",121.0609596,13.7570596
AI-generated Address,"Brgy. Poblacion, Batangas City","Brgy. Poblacion, Batangas City.","Barangay 5, Poblacion, Batangas, Calabarzon, 4200, Pilipinas",121.0609596,13.7570596
AI-generated Address,"Palm Village, Makati City","Palm Village, Makati City","Palm Village, District II, Makati, Southern Manila District, Metro Manila, Pilipinas",121.041421939843,14.56162275
AI-generated Address,"Palm Village, Makati City","Palm Village, Makati City.","Palm Village, District II, Makati, Southern Manila District, Metro Manila, Pilipinas",121.041421939843,14.56162275
AI-generated Address,"Brgy. San Lorenzo, Makati City","Brgy. San Lorenzo, Makati City","San Lorenzo Barangay hall, Amorsolo Street, San Lorenzo, District I, Makati, Southern Manila District, Metro Manila, 1223, Pilipinas",121.01825449480717,14.54510955
AI-generated Address,"Brgy. San Lorenzo, Makati City","Barangay San Lorenzo, Makati City","San Lorenzo Barangay hall, Amorsolo Street, San Lorenzo, District I, Makati, Southern Manila District, Metro Manila, 1223, Pilipinas",121.01825449480717,14.54510955
AI-generated Address,"1052 España Boulevard, Sampaloc, Manila","1052 España Boulevard, Sampaloc, Manila","España Boulevard, Sampaloc, Fourth District, Manila, Capital District, Metro Manila, 1015, Pilipinas",120.9880945,14.6053585
AI-generated Address,"215 Banawe Street, Manresa, Quezon City","215 Banawe Street, Manresa, Quezon City","Banawe Street, Manresa, 1st District, Quezon City, Eastern Manila District, Metro Manila, 1115, Pilipinas",121.000468,14.641612
AI-generated Address,"10 Aguirre Avenue, Barangay BF Homes, Parañaque City","Aguirre Avenue, BF Homes, Parañaque City.","Bridges of Hope Rehabilitation Center - Parañaque City, 364, Aguirre Avenue, BF Homes Phase 3, BF Homes, Parañaque, Southern Manila District, Metro Manila, 1700, Pilipinas",121.00570974656743,14.4567976
AI-generated Address,"Purok 6, Barangay San Miguel, Tarlac City","Barangay San Miguel, Tarlac City.","San Miguel, Capehan, Tarlac City, Tarlac, Central Luzon, 2301, Pilipinas",120.5975582,15.43242
AI-generated Address,"Purok 6, Barangay San Miguel, Tarlac City","Barangay San Miguel, Tarlac City, Tarlac.","San Miguel, Capehan, Tarlac City, Tarlac, Central Luzon, 2301, Pilipinas",120.5975582,15.43242
AI-generated Address,"Purok 6, Barangay San Miguel, Tarlac City","Purok 6, Barangay San Miguel, Tarlac City.","San Miguel, Capehan, Tarlac City, Tarlac, Central Luzon, 2301, Pilipinas",120.5975582,15.43242
AI-generated Address,"Purok 6, Barangay San Miguel, Tarlac City","Purok 6, Barangay San Miguel, Tarlac City","San Miguel, Capehan, Tarlac City, Tarlac, Central Luzon, 2301, Pilipinas",120.5975582,15.43242
AI-generated Address,"123 Maginhawa Street, Teacher's Village East, Quezon City","123 Maginhawa Street, Teachers Village East, Quezon City","Maginhawa Street, Sikatuna Village, Diliman, 4th District, Quezon City, Eastern Manila District, Metro Manila, 1101, Pilipinas",121.0611054,14.6423794
AI-generated Address,"71 Rizal Avenue, Barangay 34, Caloocan City","Rizal Avenue, Barangay, Caloocan City","Rizal Avenue Extension, Barangay 120, Zone 10, Grace Park East, District 2, Caloocan, Northern Manila District, Metro Manila, 1403, Pilipinas",120.9832087,14.6378344
AI-generated Address,"123 Mabini St., Barangay Poblacion, Makati City","Mabini Street, Poblacion, Makati City","A. Mabini Street, Poblacion, District I, Makati, Southern Manila District, Metro Manila, 1210, Pilipinas",121.0303442,14.5696341
AI-generated Address,"123 Mabini St., Barangay Poblacion, Makati City","123 Mabini Street, Poblacion, Makati City","A. Mabini Street, Poblacion, District I, Makati, Southern Manila District, Metro Manila, 1210, Pilipinas",121.0303442,14.5696341
AI-generated Address,"654 Pedro Gil St., Barangay Santa Ana, Manila","654 Pedro Gil Street, Barangay Santa Ana, Manila","Pedro Gil Street, Barangay 876, Santa Ana, Sixth District, Manila, Capital District, Metro Manila, 1009, Pilipinas",121.0120353,14.5813972
AI-generated Address,"654 Pedro Gil St., Barangay Santa Ana, Manila","Pedro Gil Street, Barangay Santa Ana, Manila","Pedro Gil Street, Barangay 876, Santa Ana, Sixth District, Manila, Capital District, Metro Manila, 1009, Pilipinas",121.0120353,14.5813972
AI-generated Address,"654 Pedro Gil St., Barangay Santa Ana, Manila","654 Pedro Gil Street, Barangay Santa Ana, Manila.","Pedro Gil Street, Barangay 876, Santa Ana, Sixth District, Manila, Capital District, Metro Manila, 1009, Pilipinas",121.0120353,14.5813972
AI-generated Address,"135 Katipunan Ave., Barangay Loyola Heights, Quezon City","Katipunan Avenue, Loyola Heights, Quezon City","Katipunan Avenue, Loyola Heights, 3rd District, Quezon City, Eastern Manila District, Metro Manila, 1108, Pilipinas",121.0744918,14.6346731
AI-generated Address,"888 Taft Avenue, Malate, Manila","888 Taft Avenue, Malate, Manila","Taft Avenue, Barangay 678, Barangay 694, Malate, Fifth District, Manila, Capital District, Metro Manila, 1004, Pilipinas",120.9888493,14.5752385
AI-generated Address,"888 Taft Avenue, Malate, Manila","888 Taft Avenue, Malate, Manila.","Taft Avenue, Barangay 678, Barangay 694, Malate, Fifth District, Manila, Capital District, Metro Manila, 1004, Pilipinas",120.9888493,14.5752385
AI-generated Address,"555 Quirino Highway, Lagro, Quezon City","555 Quirino Highway, Lagro, Quezon City","Quirino Highway, Pasong Putik Proper, 5th District, Quezon City, Eastern Manila District, Metro Manila, 1118, Pilipinas",121.0596916,14.7353386
AI-generated Address,"555 Quirino Highway, Lagro, Quezon City","Quirino Highway, Lagro, Quezon City","Quirino Highway, Pasong Putik Proper, 5th District, Quezon City, Eastern Manila District, Metro Manila, 1118, Pilipinas",121.0596916,14.7353386
AI-generated Address,"234 Mabini St., Brgy. Poblacion, Batangas City","234 Mabini Street, Barangay Poblacion, Batangas City","Mabini Street, Barangay 11, Poblacion, Batangas, Calabarzon, 4200, Pilipinas",121.057681,13.7617368
AI-generated Address,"234 Mabini St., Brgy. Poblacion, Batangas City","Mabini Street, Poblacion, Batangas City.","Mabini Street, Barangay 11, Poblacion, Batangas, Calabarzon, 4200, Pilipinas",121.057681,13.7617368
AI-generated Address,"755 MacArthur Highway, Barangay San Nicolas, Tarlac City","755 MacArthur Highway, Barangay San Nicolas, Tarlac City.","MacArthur Highway, Sitio Tampoco, Salapungan, Tarlac City, Tarlac, Central Luzon, 2300, Pilipinas",120.5966442,15.5010596
AI-generated Address,"755 MacArthur Highway, Barangay San Nicolas, Tarlac City","755 MacArthur Highway, Barangay San Nicolas, Tarlac City","MacArthur Highway, Sitio Tampoco, Salapungan, Tarlac City, Tarlac, Central Luzon, 2300, Pilipinas",120.5966442,15.5010596
AI-generated Address,"890 Aurora Blvd, Cubao, Quezon City","890 Aurora Boulevard, Cubao, Quezon City","Aurora Boulevard, San Martin de Porres, Cubao, 4th District, Quezon City, Eastern Manila District, Metro Manila, 1111, Pilipinas",121.0491157,14.6210398
AI-generated Address,"789 Roxas Blvd, Malate, Manila","789 Roxas Boulevard, Malate, Manila","Roxas Boulevard, Barangay 76, Malate, Fifth District, Manila, Capital District, Metro Manila, 1004, Pilipinas",120.9873512,14.5588583
AI-generated Address,"654 Taft Ave, Malate, Manila","654 Taft Avenue, Malate, Manila","Taft Avenue, Barangay 678, Barangay 694, Malate, Fifth District, Manila, Capital District, Metro Manila, 1004, Pilipinas",120.9888493,14.5752385
AI-generated Address,"432 Lopez Jaena St, Iloilo City, Iloilo","432 Lopez Jaena Street, Iloilo City, Iloilo.","Lopez Jaena Street, Sambag, Jaro, Iloilo City, Western Visayas, 5000, Pilipinas",122.5392524,10.74226
AI-generated Address,"Unit 601, Magnolia Residences, New Manila, Quezon City","Unit 601, Magnolia Residences, New Manila, Quezon City","Magnolia Residences, Cubao, 4th District, Quezon City, Eastern Manila District, Metro Manila, Pilipinas",121.03916654287616,14.61430795
AI-generated Address,"Lot 10, Block 3, Barangay Sto. Niño, Parañaque City","Barangay Sto. Niño, Paranaque City","Newport City Bus Station, NAIA Road, Airport Village, Vitalez, Zone 20, District 1, Pasay, Southern Manila District, Metro Manila, 1705, Pilipinas",121.0122689,14.5101349
AI-generated Address,"Lot 10, Block 3, Barangay Sto. Niño, Parañaque City","Barangay Sto. Niño, Parañaque City","Newport City Bus Station, NAIA Road, Airport Village, Vitalez, Zone 20, District 1, Pasay, Southern Manila District, Metro Manila, 1705, Pilipinas",121.0122689,14.5101349
AI-generated Address,"Lot 10, Block 3, Barangay Sto. Niño, Parañaque City","Barangay Sto. Niño, Parañaque City.","Newport City Bus Station, NAIA Road, Airport Village, Vitalez, Zone 20, District 1, Pasay, Southern Manila District, Metro Manila, 1705, Pilipinas",121.0122689,14.5101349
AI-generated Address,"78 Acacia Street, Barangay 10, Bacolod City","Acacia Street, Barangay 10, Bacolod City","Bacolod City Tourism Office, Father Mauricio Ferrero Street, Malipayon, Barangay 12, Downtown, Bacolod, Western Visayas, 6100, Pilipinas",122.94527395,10.6703929
AI-generated Address,"78 Acacia Street, Barangay 10, Bacolod City","Acacia Street, Barangay 10, Bacolod City.","Bacolod City Tourism Office, Father Mauricio Ferrero Street, Malipayon, Barangay 12, Downtown, Bacolod, Western Visayas, 6100, Pilipinas",122.94527395,10.6703929
AI-generated Address,"123 A. Mabini Street, Poblacion, Makati City","123 A. Mabini Street, Poblacion, Makati City","A. Mabini Street, Poblacion, District I, Makati, Southern Manila District, Metro Manila, 1210, Pilipinas",121.0303442,14.5696341
AI-generated Address,"123 A. Mabini Street, Poblacion, Makati City","A. Mabini Street, Poblacion, Makati City","A. Mabini Street, Poblacion, District I, Makati, Southern Manila District, Metro Manila, 1210, Pilipinas",121.0303442,14.5696341
AI-generated Address,"127 Maginhawa St., Diliman, Quezon City","127 Maginhawa Street, Diliman, Quezon City","Globo Asiatico Enterprise Inc., 127, Maginhawa Street, Teachers Village East, Diliman, 4th District, Quezon City, Eastern Manila District, Metro Manila, 1101, Pilipinas",121.06119,14.6439956
AI-generated Address,"3 Malvar St., Batangas City, Batangas","Malvar Street, Batangas City, Batangas","Governor Malvar Street, 2, Santo Tomas, Batangas, Calabarzon, 4234, Pilipinas",121.141058,14.1087922
AI-generated Address,"3 Malvar St., Batangas City, Batangas","3 Malvar Street, Batangas City, Batangas","Governor Malvar Street, 2, Santo Tomas, Batangas, Calabarzon, 4234, Pilipinas",121.141058,14.1087922
AI-generated Address,"Block 7 Lot 15, Paseo de Sta. Rosa, Barangay Don Jose, Santa Rosa, Laguna","Paseo de Santa Rosa, Don Jose, Santa Rosa, Laguna","Paseo 5, Embarcadero Drive, Don Jose, Santa Rosa, Laguna, Calabarzon, 4026, Pilipinas",121.06297627553288,14.24753005
AI-generated Address,"45 Lacson St., Poblacion, Bacolod City","45 Lacson Street, Poblacion, Bacolod City","Lacson Street, Barangay 9, Downtown, Bacolod-1, Bacolod, Western Visayas, 6100, Pilipinas",122.9530102,10.6760458
AI-generated Address,"45 Lacson St., Poblacion, Bacolod City","Lacson Street, Poblacion, Bacolod City","Lacson Street, Barangay 9, Downtown, Bacolod-1, Bacolod, Western Visayas, 6100, Pilipinas",122.9530102,10.6760458
AI-generated Address,"45 Lacson St., Poblacion, Bacolod City","45 Lacson Street, Poblacion, Bacolod City.","Lacson Street, Barangay 9, Downtown, Bacolod-1, Bacolod, Western Visayas, 6100, Pilipinas",122.9530102,10.6760458
AI-generated Address,"145 Tandang Sora Avenue, Old Balara, Quezon City","145 Tandang Sora Avenue, Old Balara, Quezon City","Tandang Sora Avenue, Matandang Balara, 3rd District, Quezon City, Eastern Manila District, Metro Manila, 1119, Pilipinas",121.0735647,14.6636339
AI-generated Address,"145 Tandang Sora Avenue, Old Balara, Quezon City","145 Tandang Sora Avenue, Old Balara, Quezon City.","Tandang Sora Avenue, Matandang Balara, 3rd District, Quezon City, Eastern Manila District, Metro Manila, 1119, Pilipinas",121.0735647,14.6636339
AI-generated Address,"Lot 15, Block 2, Lancaster New City, Alapan Imus Cavite","Lancaster New City, Alapan, Imus, Cavite","Lancaster New City Cavite New Sales Building, Lancaster Boulevard, Gawad Kalinga - Alapan, Alapan II-B, Imus, Cavite, Calabarzon, 4103, Pilipinas",120.90390219503334,14.4015442
AI-generated Address,"Lot 15, Block 2, Lancaster New City, Alapan Imus Cavite","Lancaster New City, Alapan, Imus, Cavite.","Lancaster New City Cavite New Sales Building, Lancaster Boulevard, Gawad Kalinga - Alapan, Alapan II-B, Imus, Cavite, Calabarzon, 4103, Pilipinas",120.90390219503334,14.4015442
AI-generated Address,"31 Don Vicente St., Barangay San Lorenzo, Makati City","Barangay San Lorenzo, Makati City","San Lorenzo Barangay hall, Amorsolo Street, San Lorenzo, District I, Makati, Southern Manila District, Metro Manila, 1223, Pilipinas",121.01825449480717,14.54510955
AI-generated Address,"3661 España Blvd., Barangay 724, Manila","3661 España Boulevard, Barangay 724, Manila","España Boulevard, Barangay 470, Sampaloc, Fourth District, Manila, Capital District, Metro Manila, 1015, Pilipinas",120.9921078,14.6091733
AI-generated Address,"3661 España Blvd., Barangay 724, Manila","España Boulevard, Barangay 724, Manila","España Boulevard, Barangay 470, Sampaloc, Fourth District, Manila, Capital District, Metro Manila, 1015, Pilipinas",120.9921078,14.6091733
AI-generated Address,"314 Sampaguita Street, Barangay Poblacion, Davao City","314 Sampaguita Street, Barangay Poblacion, Davao City","Sampaguita Street, Phase 2, 19-B Garcia Heights, Poblacion, Davao City, Davao Region, 8016, Pilipinas",125.6032448,7.1031025
AI-generated Address,"314 Sampaguita Street, Barangay Poblacion, Davao City","Sampaguita Street, Barangay Poblacion, Davao City","Sampaguita Street, Bagong Lipunan, 19-B Garcia Heights, Poblacion, Davao City, Davao Region, 8016, Pilipinas",125.6127594,7.0970296
AI-generated Address,"456 Alabang Hills Village, Muntinlupa City","Alabang Hills Village, Muntinlupa City","Alabang Hills Village, Muntinlupa, Southern Manila District, Metro Manila, 1789, Pilipinas",121.03270137933303,14.4342821
AI-generated Address,"456 Alabang Hills Village, Muntinlupa City","456 Alabang Hills Village, Muntinlupa City.","Alabang Hills Village, Muntinlupa, Southern Manila District, Metro Manila, 1789, Pilipinas",121.03270137933303,14.4342821
AI-generated Address,"789 Barangay San Antonio, San Pedro Laguna","Barangay San Antonio, San Pedro, Laguna","San Antonio Barangay Hall, Quezon Street, San Antonio, San Pedro, Laguna, Calabarzon, 4023, Pilipinas",121.0553185,14.3665828
AI-generated Address,"789 Barangay San Antonio, San Pedro Laguna","Barangay San Antonio, San Pedro, Laguna.","San Antonio Barangay Hall, Quezon Street, San Antonio, San Pedro, Laguna, Calabarzon, 4023, Pilipinas",121.0553185,14.3665828
AI-generated Address,"789 Taft Avenue, Barangay 728, Manila City","789 Taft Avenue, Barangay 728, Manila City","Taft Avenue, Barangay 728, Malate, Fifth District, Manila, Capital District, Metro Manila, 1004, Pilipinas",120.9947447,14.5636458
AI-generated Address,"789 Taft Avenue, Barangay 728, Manila City","789 Taft Avenue, Barangay 728, Manila City.","Taft Avenue, Barangay 728, Malate, Fifth District, Manila, Capital District, Metro Manila, 1004, Pilipinas",120.9947447,14.5636458
AI-generated Address,"123 Maligaya St., Barangay San Antonio, Makati City","Barangay San Antonio, Makati City","San Antonio Barangay Hall, Lumbayao Street, San Antonio, District I, Makati, Southern Manila District, Metro Manila, 1203, Pilipinas",121.0086306,14.5622446
AI-generated Address,"789 Loyola Heights, Quezon City","789 Loyola Heights, Quezon City","Loyola Heights, 3rd District, Quezon City, Eastern Manila District, Metro Manila, 1108, Pilipinas",121.0737779,14.6410904
AI-generated Address,"890 Amalfi Oasis, Cebu City","890 Amalfi Oasis, Cebu City","Amalfi at City di Mare, Cebu City, Central Visayas, 6000, Pilipinas",123.8755777094514,10.26738475
AI-generated Address,"23 Mabini Street, Brgy. Poblacion, Makati City","Mabini Street, Poblacion, Makati City","A. Mabini Street, Poblacion, District I, Makati, Southern Manila District, Metro Manila, 1210, Pilipinas",121.0303442,14.5696341
AI-generated Address,"Lot 15, Dasmarinas Village, Brgy. Dasmarinas, Makati City","Dasmarinas Village, Barangay Dasmarinas, Makati City","Dasmariñas Village Pavilion, 1419, Campanilla Street, Bougainvilla Place, Dasmariñas Village, District I, Makati, Southern Manila District, Metro Manila, 1231, Pilipinas",121.0303769,14.537293
AI-generated Address,"Lot 15, Dasmarinas Village, Brgy. Dasmarinas, Makati City","Dasmarinas Village, Brgy. Dasmarinas, Makati City","Dasmariñas Village Basketball Court, Calumpang Street, Dasmariñas Village, District I, Makati, Southern Manila District, Metro Manila, 1222, Pilipinas",121.029976722985,14.5371293
AI-generated Address,"Lot 15, Dasmarinas Village, Brgy. Dasmarinas, Makati City","Dasmarinas Village, Brgy. Dasmarinas, Makati City.","Dasmariñas Village Basketball Court, Calumpang Street, Dasmariñas Village, District I, Makati, Southern Manila District, Metro Manila, 1222, Pilipinas",121.029976722985,14.5371293
AI-generated Address,"1225 Katipunan Avenue, Brgy. Loyola Heights, Quezon City","1225 Katipunan Avenue, Loyola Heights, Quezon City","Katipunan Avenue, Loyola Heights, 3rd District, Quezon City, Eastern Manila District, Metro Manila, 1108, Pilipinas",121.0744918,14.6346731
AI-generated Address,"Lot 5, Block 2, Camella Homes, Bacoor, Cavite","Camella Homes, Bacoor, Cavite","Camella Homes, Bacoor, Cavite, Calabarzon, 4102, Pilipinas",120.9316595,14.4461805
AI-generated Address,"Lot 5, Block 2, Camella Homes, Bacoor, Cavite","Camella Homes, Bacoor, Cavite.","Camella Homes, Bacoor, Cavite, Calabarzon, 4102, Pilipinas",120.9316595,14.4461805
AI-generated Address,"12 Acacia Street, Barangay Poblacion, Makati City","Barangay Poblacion, Makati City","South Poblacion Barangay Day Care Center, General Luna Street, Bel-Air Village Phase I and II, Poblacion, District I, Makati, Southern Manila District, Metro Manila, 1210, Pilipinas",121.0310125,14.5649423
AI-generated Address,"Lot 5, Block 12, San Miguel Village, Davao City","San Miguel Village, Davao City.","San Miguel, Vicente Duterte, Agdao District, Davao City, Davao Region, 8000, Pilipinas",125.6356882,7.0882138
AI-generated Address,"Lot 5, Block 12, San Miguel Village, Davao City","San Miguel Village, Davao City","San Miguel, Vicente Duterte, Agdao District, Davao City, Davao Region, 8000, Pilipinas",125.6356882,7.0882138
AI-generated Address,"123 Dapitan St., Santa Mesa Heights, Quezon City, Metro Manila","123 Dapitan Street, Santa Mesa Heights, Quezon City, Metro Manila","Dapitan Street, Santa Teresita, Santa Mesa Heights, 1st District, Quezon City, Eastern Manila District, Metro Manila, 1114, Pilipinas",121.0002801,14.6223082
AI-generated Address,"123 Dapitan St., Santa Mesa Heights, Quezon City, Metro Manila","Dapitan Street, Santa Mesa Heights, Quezon City, Metro Manila","Dapitan Street, Santa Teresita, Santa Mesa Heights, 1st District, Quezon City, Eastern Manila District, Metro Manila, 1114, Pilipinas",121.0002801,14.6223082
AI-generated Address,"123 Dapitan St., Santa Mesa Heights, Quezon City, Metro Manila","Dapitan Street, Santa Mesa Heights, Quezon City, Metro Manila.","Dapitan Street, Santa Teresita, Santa Mesa Heights, 1st District, Quezon City, Eastern Manila District, Metro Manila, 1114, Pilipinas",121.0002801,14.6223082
AI-generated Address,"32 Jasmine Street, Barangay Valencia, Quezon City","Barangay Valencia, Quezon City","Bahay Pamahalaan ng Barangay Valencia, Santolan Road, Garden Island Condoville, Valencia, New Manila, 4th District, Quezon City, Eastern Manila District, Metro Manila, 1112, Pilipinas",121.03952220959928,14.60805165
AI-generated Address,"25 Sampaguita St., Barangay San Antonio, Quezon City","Barangay San Antonio, Quezon City","San Antonio Barangay Hall, 323, Fernando Poe Jr. Avenue, San Antonio, San Francisco del Monte, 1st District, Quezon City, Eastern Manila District, Metro Manila, 1105, Pilipinas",121.01876486957002,14.654558
AI-generated Address,"345 Tulip Road, Barangay Matina Crossing, Davao City","Tulip Road, Barangay Matina Crossing, Davao City","Tulip Grand Plaza, MacArthur Highway, Davao Global Township, 74-A Matina Crossing, Davao City, Davao Region, 8000, Pilipinas",125.5877058919861,7.0600544
AI-generated Address,"345 Tulip Road, Barangay Matina Crossing, Davao City","Tulip Road, Barangay Matina Crossing, Davao City.","Tulip Grand Plaza, MacArthur Highway, Davao Global Township, 74-A Matina Crossing, Davao City, Davao Region, 8000, Pilipinas",125.5877058919861,7.0600544
AI-generated Address,"23 Roxas St., Brgy. Poblacion, Davao City, Philippines","23 Roxas Street, Barangay Poblacion, Davao City, Philippines","Roxas Street, Busilak, Magugpo Poblacion, Tagum, Davao del Norte, Davao Region, 8100, Pilipinas",125.8035592,7.4498391
AI-generated Address,"23 Roxas St., Brgy. Poblacion, Davao City, Philippines","Roxas Street, Barangay Poblacion, Davao City, Philippines","Roxas Street, Busilak, Magugpo Poblacion, Tagum, Davao del Norte, Davao Region, 8100, Pilipinas",125.8035592,7.4498391
AI-generated Address,"123 P. Burgos Street, Barangay Poblacion, Makati City","P. Burgos Street, Poblacion, Makati City","P. Burgos Street, Bel-Air Village Phase I and II, Poblacion, District I, Makati, Southern Manila District, Metro Manila, 1210, Pilipinas",121.0298719,14.5634204
AI-generated Address,"12 E. Rodriguez Jr. Avenue, Bagumbayan, Quezon City","E. Rodriguez Jr. Avenue, Bagumbayan, Quezon City","E. Rodriguez Jr. Avenue, Bagumbayan, 3rd District, Quezon City, Eastern Manila District, Metro Manila, 1110, Pilipinas",121.0787405,14.6067752
AI-generated Address,"44 Rosal St., Dolores, City of San Fernando, Pampanga","Rosal Street, Dolores, City of San Fernando, Pampanga","Rosal Street, Dolores Homesite, Plantation Royale, San Fernando, Pampanga, Central Luzon, 2000, Pilipinas",120.6752274,15.0406654
AI-generated Address,"44 Rosal St., Dolores, City of San Fernando, Pampanga","44 Rosal Street, Dolores, City of San Fernando, Pampanga","Rosal Street, Dolores Homesite, Plantation Royale, San Fernando, Pampanga, Central Luzon, 2000, Pilipinas",120.6752274,15.0406654
AI-generated Address,"44 Rosal St., Dolores, City of San Fernando, Pampanga","Rosal Street, Dolores, City of San Fernando, Pampanga.","Rosal Street, Dolores Homesite, Plantation Royale, San Fernando, Pampanga, Central Luzon, 2000, Pilipinas",120.6752274,15.0406654
AI-generated Address,"120 Alabang Zapote Road, Almanza Uno, Las Piñas City","Almanza Uno, Las Piñas City","Las Piñas City National Senior High School - Doña Josefa Campus, Manga Street, Almanza Uno, 2nd District, Southern Manila District, Metro Manila, 1750, Pilipinas",121.01224628472328,14.42263935
AI-generated Address,"789 Palm Avenue, Barangay Lahug, Cebu City","Barangay Lahug, Cebu City, Philippines","Lahug Barangay Hall, Gorordo Avenue, Lahug, Cebu City, Central Visayas, 6000, Pilipinas",123.89848493453354,10.324155
AI-generated Address,"Lot 5 Block 2, Magallanes Village, Barangay Magallanes, Makati City","Magallanes Village, Barangay Magallanes, Makati City","Magallanes, EDSA, Ecology Village San EDSA Sector, Magallanes, District I, Makati, Southern Manila District, Metro Manila, 1232, Pilipinas",121.01933260268092,14.54197105
AI-generated Address,"Lot 5 Block 2, Magallanes Village, Barangay Magallanes, Makati City","Magallanes Village, Barangay Magallanes, Makati City.","Magallanes, EDSA, Ecology Village San EDSA Sector, Magallanes, District I, Makati, Southern Manila District, Metro Manila, 1232, Pilipinas",121.01933260268092,14.54197105
AI-generated Address,"789 Kalayaan Ave., Barangay Poblacion, Makati City","789 Kalayaan Avenue, Poblacion, Makati City","Kalayaan Avenue, Bel-Air Village Phase I and II, Poblacion, District I, Makati, Southern Manila District, Metro Manila, 1210, Pilipinas",121.0265841,14.565532
AI-generated Address,"123 J.P Rizal Street, Barangay Poblacion, Makati City","123 J.P Rizal Street, Poblacion, Makati City","Jose P. Rizal Avenue, Bel-Air Village Phase I and II, Poblacion, District I, Makati, Southern Manila District, Metro Manila, 1210, Pilipinas",121.0310891,14.5675641
AI-generated Address,"Lot 3, Blk 7, Camia Street, Barangay Davao, Davao City","Camia Street, Barangay Davao, Davao City","Camia Street, Ultra Homes, 75-A Matina Aplaya, Talomo District, Davao City, Davao Region, 8021, Pilipinas",125.5647797,7.0505425
AI-generated Address,"123 Main Street, Greenhills, San Juan, Metro Manila","Main Street, Greenhills, San Juan, Metro Manila","Main Building, Wilson Street, Greenhills, 2nd District, San Juan, Eastern Manila District, Metro Manila, 1502, Pilipinas",121.04554351198183,14.5976379
AI-generated Address,"Lot 15 Cluster 8, San Lorenzo South, Santa Rosa, Laguna","San Lorenzo South, Santa Rosa, Laguna","San Lorenzo South Subdivision Phase 1C Annex, Santa Rosa, Laguna, Calabarzon, Pilipinas",121.10610260297231,14.2780095
AI-generated Address,"Lot 15 Cluster 8, San Lorenzo South, Santa Rosa, Laguna","San Lorenzo South, Santa Rosa, Laguna.","San Lorenzo South Subdivision Phase 1C Annex, Santa Rosa, Laguna, Calabarzon, Pilipinas",121.10610260297231,14.2780095
AI-generated Address,"Barangay Magallanes, Makati City","Barangay Magallanes, Makati City","Magallanes Village Barangay Hall, Santiago Street, Ecology Village San EDSA Sector, Magallanes, District I, Makati, Southern Manila District, Metro Manila, 1232, Pilipinas",121.01629575,14.5393362
AI-generated Address,"123 J.P. Rizal St., Barangay Poblacion, Makati City, Metro Manila","123 Jose P. Rizal Street, Poblacion, Makati City, Metro Manila","Jose P. Rizal Avenue, Bel-Air Village Phase I and II, Poblacion, District I, Makati, Southern Manila District, Metro Manila, 1210, Pilipinas",121.0310891,14.5675641
AI-generated Address,"123 J.P. Rizal Street, Barangay Poblacion, Makati City","123 J.P. Rizal Street, Poblacion, Makati City","Jose P. Rizal Avenue, Bel-Air Village Phase I and II, Poblacion, District I, Makati, Southern Manila District, Metro Manila, 1210, Pilipinas",121.0310891,14.5675641
AI-generated Address,"654 Sen. Gil Puyat Ave, Barangay Palanan, Makati City","654 Senator Gil Puyat Avenue, Barangay Palanan, Makati City","Senator Gil J. Puyat Avenue, Barangay 46, Zone 6, District 2, Pasay, Southern Manila District, Metro Manila, 1234, Pilipinas",121.0001368,14.5549739
AI-generated Address,"654 Sen. Gil Puyat Ave, Barangay Palanan, Makati City","654 Senator Gil Puyat Avenue, Barangay Palanan, Makati City.","Senator Gil J. Puyat Avenue, Barangay 46, Zone 6, District 2, Pasay, Southern Manila District, Metro Manila, 1234, Pilipinas",121.0001368,14.5549739
AI-generated Address,"#156 J. P. Rizal St., Barangay Poblacion, Makati City","J. P. Rizal Street, Poblacion, Makati City.","Jose P. Rizal Avenue, Bel-Air Village Phase I and II, Poblacion, District I, Makati, Southern Manila District, Metro Manila, 1210, Pilipinas",121.0310891,14.5675641
AI-generated Address,"L47 B17 Rose St., Barangay San Isidro, Quezon City","Barangay San Isidro, Quezon City","Bulwagang Pambarangay ng San Isidro, Union Civica Street, San Isidro, Galas, 4th District, Quezon City, Eastern Manila District, Metro Manila, 1113, Pilipinas",121.0095907,14.61200575
AI-generated Address,"Block 2 Lot 7 Bayview Homes, Barangay San Jose, Navotas City","Barangay San Jose, Navotas City","San Jose Barangay Hall, Governor A. Pascual Street, Sipac-Almacen, Navotas, Northern Manila District, Metro Manila, 1485, Pilipinas",120.94179104483472,14.66446065
AI-generated Address,"2/F Robinsons Galleria, Ortigas Avenue, Barangay Ugong Norte, Quezon City","Robinsons Galleria, Ortigas Avenue, Ugong Norte, Quezon City","Robinsons Galleria, Ortigas Avenue, Ugong Norte, 3rd District, Quezon City, Eastern Manila District, Metro Manila, 1110, Pilipinas",121.05959621486308,14.5911642
AI-generated Address,"Unit 302 Avida Towers, Taft Avenue, Malate, Manila","Avida Towers, Taft Avenue, Malate, Manila","Avida Towers Taft Prime 1, 1811, Taft Avenue, Barangay 33, Zone 3, District 1, Pasay, Southern Manila District, Metro Manila, 1300, Pilipinas",120.99551780559554,14.5581972
AI-generated Address,"Unit 302 Avida Towers, Taft Avenue, Malate, Manila","Avida Towers, Taft Avenue, Malate, Manila.","Avida Towers Taft Prime 1, 1811, Taft Avenue, Barangay 33, Zone 3, District 1, Pasay, Southern Manila District, Metro Manila, 1300, Pilipinas",120.99551780559554,14.5581972
AI-generated Address,"Lot 8, Block 3, Pilar Village, Las Piñas City","Pilar Village, Las Piñas City","Seventh-Day Adventist Church of Las Piñas City, 1, Mercury Street, Pilar Village Phase 4, Pilar, 2nd District, Southern Manila District, Metro Manila, 1750, Pilipinas",121.01055016442643,14.41754225
AI-generated Address,"246 Rizal Street, Barangay Balibago, Angeles City","Rizal Street, Barangay Balibago, Angeles City","Rizal Street, Don Pepe Village, Angeles, Central Luzon, 2024, Pilipinas",120.5920996,15.167459
AI-generated Address,"246 Rizal Street, Barangay Balibago, Angeles City","246 Rizal Street, Barangay Balibago, Angeles City","Rizal Street, Don Pepe Village, Angeles, Central Luzon, 2024, Pilipinas",120.5920996,15.167459
AI-generated Address,"145, San Pablo Street, Barangay Poblacion, Makati City","145 San Pablo Street, Poblacion, Makati City","San Pablo Street, Bel-Air Village Phase I and II, Poblacion, District I, Makati, Southern Manila District, Metro Manila, 1210, Pilipinas",121.0318383,14.5670013
AI-generated Address,"1052 España Boulevard, Sampaloc, Manila","1052 España Boulevard, Sampaloc, Manila.","España Boulevard, Sampaloc, Fourth District, Manila, Capital District, Metro Manila, 1015, Pilipinas",120.9880945,14.6053585
AI-generated Address,"43 Kalayaan Ave, Barangay Poblacion, Makati City","43 Kalayaan Avenue, Poblacion, Makati City","Kalayaan Avenue, Bel-Air Village Phase I and II, Poblacion, District I, Makati, Southern Manila District, Metro Manila, 1210, Pilipinas",121.0265841,14.565532
AI-generated Address,"Purok 6, Barangay San Miguel, Tarlac City","Barangay San Miguel, Tarlac City, Philippines","San Miguel, Capehan, Tarlac City, Tarlac, Central Luzon, 2301, Pilipinas",120.5975582,15.43242
AI-generated Address,"Purok 6, Barangay San Miguel, Tarlac City","Barangay San Miguel, Tarlac City","San Miguel, Capehan, Tarlac City, Tarlac, Central Luzon, 2301, Pilipinas",120.5975582,15.43242
AI-generated Address,"123 Maginhawa Street, Teacher's Village East, Quezon City","Maginhawa Street, Teachers Village East, Quezon City","Maginhawa Street, Sikatuna Village, Diliman, 4th District, Quezon City, Eastern Manila District, Metro Manila, 1101, Pilipinas",121.0611054,14.6423794
AI-generated Address,"123 Mabini St., Barangay Poblacion, Makati City","Mabini Street, Poblacion, Makati City.","A. Mabini Street, Poblacion, District I, Makati, Southern Manila District, Metro Manila, 1210, Pilipinas",121.0303442,14.5696341
AI-generated Address,"789 Dela Rosa St., Barangay San Lorenzo, Makati City","Barangay San Lorenzo, Makati City","San Lorenzo Barangay hall, Amorsolo Street, San Lorenzo, District I, Makati, Southern Manila District, Metro Manila, 1223, Pilipinas",121.01825449480717,14.54510955
AI-generated Address,"654 Pedro Gil St., Barangay Santa Ana, Manila","Pedro Gil Street, Barangay Santa Ana, Manila.","Pedro Gil Street, Barangay 876, Santa Ana, Sixth District, Manila, Capital District, Metro Manila, 1009, Pilipinas",121.0120353,14.5813972
AI-generated Address,"124A Rizal Street, Brgy. Bagong Silangan, Quezon City","Rizal Street, Bagong Silangan, Quezon City","J. P. Rizal Street, Kumonoy, Bagong Silangan, 2nd District, Quezon City, Eastern Manila District, Metro Manila, 1119, Pilipinas",121.1059237,14.6994639
AI-generated Address,"654 Taft Ave, Malate, Manila","654 Taft Avenue, Malate, Manila.","Taft Avenue, Barangay 678, Barangay 694, Malate, Fifth District, Manila, Capital District, Metro Manila, 1004, Pilipinas",120.9888493,14.5752385
AI-generated Address,"432 Lopez Jaena St, Iloilo City, Iloilo","432 Lopez Jaena Street, Iloilo City, Iloilo","Lopez Jaena Street, Sambag, Jaro, Iloilo City, Western Visayas, 5000, Pilipinas",122.5392524,10.74226
AI-generated Address,"Unit 601, Magnolia Residences, New Manila, Quezon City","Unit 601, Magnolia Residences, New Manila, Quezon City.","Magnolia Residences, Cubao, 4th District, Quezon City, Eastern Manila District, Metro Manila, Pilipinas",121.03916654287616,14.61430795
AI-generated Address,"4 Narra Street, Barangay San Agustin, Dasmariñas, Cavite","Barangay San Agustin, Dasmariñas, Cavite","San Agustin 2 Barangay Hall, Aguinaldo Highway, San Agustin 2, San Agustin, Dasmariñas, Cavite, Calabarzon, 4114, Pilipinas",120.94649865,14.31403865
AI-generated Address,"14 Mango St., Barangay San Lorenzo, Makati City","Barangay San Lorenzo, Makati City","San Lorenzo Barangay hall, Amorsolo Street, San Lorenzo, District I, Makati, Southern Manila District, Metro Manila, 1223, Pilipinas",121.01825449480717,14.54510955
AI-generated Address,"16 Lantana St., Barangay San Isidro, Makati City","Barangay San Isidro, Makati City","San Isidro Barangay Hall, Guatemala Street, Sitio 7, San Isidro, District I, Makati, Southern Manila District, Metro Manila, 1234, Pilipinas",121.0075119,14.5543461
AI-generated Address,"3 Malvar St., Batangas City, Batangas","Malvar Street, Batangas City, Batangas.","Governor Malvar Street, 2, Santo Tomas, Batangas, Calabarzon, 4234, Pilipinas",121.141058,14.1087922
AI-generated Address,"3 Malvar St., Batangas City, Batangas","3 Malvar Street, Batangas City, Batangas.","Governor Malvar Street, 2, Santo Tomas, Batangas, Calabarzon, 4234, Pilipinas",121.141058,14.1087922
AI-generated Address,"45 Lacson St., Poblacion, Bacolod City","Lacson Street, Poblacion, Bacolod City.","Lacson Street, Barangay 9, Downtown, Bacolod-1, Bacolod, Western Visayas, 6100, Pilipinas",122.9530102,10.6760458
AI-generated Address,"45 Rizal Avenue, Brgy. Poblacion, Makati City","Rizal Avenue, Poblacion, Makati City","Jose P. Rizal Avenue, Bel-Air Village Phase I and II, Poblacion, District I, Makati, Southern Manila District, Metro Manila, 1210, Pilipinas",121.0310891,14.5675641
AI-generated Address,"3661 España Blvd., Barangay 724, Manila","3661 España Boulevard, Barangay 724, Manila.","España Boulevard, Barangay 470, Sampaloc, Fourth District, Manila, Capital District, Metro Manila, 1015, Pilipinas",120.9921078,14.6091733
AI-generated Address,"314 Sampaguita Street, Barangay Poblacion, Davao City","314 Sampaguita St, Brgy. Poblacion, Davao City","Sampaguita Street, Phase 2, 19-B Garcia Heights, Poblacion, Davao City, Davao Region, 8016, Pilipinas",125.6032448,7.1031025
AI-generated Address,"456 Alabang Hills Village, Muntinlupa City","456 Alabang Hills Village, Muntinlupa City","Alabang Hills Village, Muntinlupa, Southern Manila District, Metro Manila, 1789, Pilipinas",121.03270137933303,14.4342821
AI-generated Address,"789 Taft Avenue, Barangay 728, Manila City","Taft Avenue, Barangay, Manila City","Taft Avenue, Barangay 676, Ermita, Fifth District, Manila, Capital District, Metro Manila, 1000, Pilipinas",120.9857687,14.5805951
AI-generated Address,"789 Taft Avenue, Barangay 728, Manila City","Taft Avenue, Barangay 728, Manila City","Taft Avenue, Barangay 728, Malate, Fifth District, Manila, Capital District, Metro Manila, 1004, Pilipinas",120.9947447,14.5636458
AI-generated Address,"672 Dr. A. Santos Ave., Barangay San Dionisio, Paranaque City","Dr. A. Santos Avenue, San Dionisio, Paranaque City","SM City Sucat Main Building, Doctor A. Santos Avenue, Cooperative Village, San Dionisio, Parañaque, Southern Manila District, Metro Manila, 1700, Pilipinas",120.99352928893862,14.4829136
AI-generated Address,"890 Amalfi Oasis, Cebu City","Amalfi Oasis, Cebu City","Amalfi at City di Mare, Cebu City, Central Visayas, 6000, Pilipinas",123.8755777094514,10.26738475
AI-generated Address,"123 Dapitan St., Santa Mesa Heights, Quezon City, Metro Manila","Santa Mesa Heights, Quezon City, Metro Manila","Santa Mesa Heights, 1st District, Quezon City, Eastern Manila District, Metro Manila, Pilipinas",121.0003206,14.6289488
AI-generated Address,"123 Quirino Highway, Barangay San Bartolome, Quezon City","Quirino Highway, San Bartolome, Quezon City","Quirino Highway, San Bartolome, 5th District, Quezon City, Eastern Manila District, Metro Manila, 1116, Pilipinas",121.0387581,14.7071917
AI-generated Address,"23 Roxas St., Brgy. Poblacion, Davao City, Philippines","Roxas Street, Barangay Poblacion, Davao City, Philippines.","Roxas Street, Busilak, Magugpo Poblacion, Tagum, Davao del Norte, Davao Region, 8100, Pilipinas",125.8035592,7.4498391
AI-generated Address,"22 Maginhawa Street, Barangay UP Village, Quezon City","Maginhawa Street, UP Village, Quezon City","Maginhawa Street, UP Village, Diliman, 4th District, Quezon City, Eastern Manila District, Metro Manila, 1101, Pilipinas",121.0566933,14.6505381
AI-generated Address,"44 Rosal St., Dolores, City of San Fernando, Pampanga","44 Rosal Street, Dolores, City of San Fernando, Pampanga.","Rosal Street, Dolores Homesite, Plantation Royale, San Fernando, Pampanga, Central Luzon, 2000, Pilipinas",120.6752274,15.0406654
AI-generated Address,"44 Rosal St., Dolores, City of San Fernando, Pampanga","44 Rosal Street, Dolores, San Fernando, Pampanga","Rosal Street, Dolores Homesite, Plantation Royale, San Fernando, Pampanga, Central Luzon, 2000, Pilipinas",120.6752274,15.0406654
AI-generated Address,"120 Alabang Zapote Road, Almanza Uno, Las Piñas City","Alabang Zapote Road, Almanza Uno, Las Piñas City","Las Pinas City Social Hygiene Clinic, Alabang-Zapote Road, Castillo Park Subdivision, Almanza Uno, Las Piñas, 2nd District, Southern Manila District, Metro Manila, 1750, Pilipinas",121.0134202,14.4332939
AI-generated Address,"101 Paseo de Roxas, Barangay San Lorenzo, Makati City","Paseo de Roxas, San Lorenzo, Makati City","Paseo de Roxas, Legazpi, San Lorenzo, District I, Makati, Southern Manila District, Metro Manila, 1226, Pilipinas",121.0208196,14.5562348
AI-generated Address,"Lot 3, Blk 7, Camia Street, Barangay Davao, Davao City","Camia Street, Barangay Davao, Davao City.","Camia Street, Ultra Homes, 75-A Matina Aplaya, Talomo District, Davao City, Davao Region, 8021, Pilipinas",125.5647797,7.0505425
AI-generated Address,"123 J.P. Rizal St., Barangay Poblacion, Makati City, Metro Manila","J.P. Rizal Street, Poblacion, Makati City, Metro Manila","Jose P. Rizal Avenue, Bel-Air Village Phase I and II, Poblacion, District I, Makati, Southern Manila District, Metro Manila, 1210, Pilipinas",121.0310891,14.5675641
AI-generated Address,"Lot 789, Pinecrest Subdivision, Barangay San Antonio, Quezon City","Barangay San Antonio, Quezon City","San Antonio Barangay Hall, 323, Fernando Poe Jr. Avenue, San Antonio, San Francisco del Monte, 1st District, Quezon City, Eastern Manila District, Metro Manila, 1105, Pilipinas",121.01876486957002,14.654558
AI-generated Address,"24 Dela Rosa Street, Barangay San Lorenzo, Makati City","24 Dela Rosa Street, San Lorenzo, Makati City","Dela Rosa Street, Legazpi, San Lorenzo, District I, Makati, Southern Manila District, Metro Manila, 1229, Pilipinas",121.015443,14.5588111
AI-generated Address,"25 Mabini St., Barangay Poblacion, Makati City","Mabini Street, Poblacion, Makati City","A. Mabini Street, Poblacion, District I, Makati, Southern Manila District, Metro Manila, 1210, Pilipinas",121.0303442,14.5696341
AI-generated Address,"11 Jasmine Street, Barangay Magallanes, Makati City","Barangay Magallanes, Makati City","Magallanes Village Barangay Hall, Santiago Street, Ecology Village San EDSA Sector, Magallanes, District I, Makati, Southern Manila District, Metro Manila, 1232, Pilipinas",121.01629575,14.5393362
AI-generated Address,"Unit 301, Greenbelt Excelsior, Legazpi Street, Barangay Legazpi Village, Makati City","Greenbelt Excelsior, Legazpi Street, Legazpi Village, Makati City","Greenbelt Excelsior, Castro Street, Legazpi, San Lorenzo, District I, Makati, Southern Manila District, Metro Manila, 1229, Pilipinas",121.0190888496465,14.55577895
AI-generated Address,"789 Taft Avenue, Barangay 728, Manila City","789 Taft Avenue, Barangay, Manila City","Taft Avenue, Barangay 676, Ermita, Fifth District, Manila, Capital District, Metro Manila, 1000, Pilipinas",120.9857687,14.5805951
AI-generated Address,"2324 Bonifacio Global City, Barangay Fort Bonifacio, Taguig City, Philippines","Bonifacio Global City, Fort Bonifacio, Taguig City, Philippines","Fully Booked, B6, Bonifacio High Street, Fort Bonifacio, Taguig, Southern Manila District, Metro Manila, 1635, Pilipinas",121.0527688,14.5496723
AI-generated Address,"890 Amalfi Oasis, Cebu City","Amalfi Oasis, Cebu City.","Amalfi at City di Mare, Cebu City, Central Visayas, 6000, Pilipinas",123.8755777094514,10.26738475
AI-generated Address,"Lot 5, San Antonio Homes, Brgy. San Jose, Antipolo City","San Jose, Antipolo City","Antipolo City Jail, Senator L. Sumulong Memorial Circle, Dalisay, San Jose, Antipolo, Rizal, Calabarzon, 1870, Pilipinas",121.1819418,14.5854953
AI-generated Address,"123 Dapitan St., Santa Mesa Heights, Quezon City, Metro Manila","123 Dapitan Street, Santa Mesa Heights, Quezon City, Metro Manila.","Dapitan Street, Santa Teresita, Santa Mesa Heights, 1st District, Quezon City, Eastern Manila District, Metro Manila, 1114, Pilipinas",121.0002801,14.6223082
AI-generated Address,"23 Roxas St., Brgy. Poblacion, Davao City, Philippines","Roxas Street, Poblacion, Davao City, Philippines","Roxas Street, Busilak, Magugpo Poblacion, Tagum, Davao del Norte, Davao Region, 8100, Pilipinas",125.8035592,7.4498391
AI-generated Address,"23 Roxas St., Brgy. Poblacion, Davao City, Philippines","23 Roxas Street, Barangay Poblacion, Davao City, Philippines.","Roxas Street, Busilak, Magugpo Poblacion, Tagum, Davao del Norte, Davao Region, 8100, Pilipinas",125.8035592,7.4498391
AI-generated Address,"44 Rosal St., Dolores, City of San Fernando, Pampanga","Rosal Street, Dolores, San Fernando, Pampanga","Rosal Street, Dolores Homesite, Plantation Royale, San Fernando, Pampanga, Central Luzon, 2000, Pilipinas",120.6752274,15.0406654
AI-generated Address,"120 Alabang Zapote Road, Almanza Uno, Las Piñas City","Alabang-Zapote Road, Almanza Uno, Las Piñas City","Las Pinas City Social Hygiene Clinic, Alabang-Zapote Road, Castillo Park Subdivision, Almanza Uno, Las Piñas, 2nd District, Southern Manila District, Metro Manila, 1750, Pilipinas",121.0134202,14.4332939
AI-generated Address,"890 Coconut Lane, Barangay Marfori, Davao City","Barangay Marfori, Davao City","Davao City Water District Office, Father Selga Street, Madapo Hills, Barangay 8-A, Poblacion, Davao City, Davao Region, 8000, Pilipinas",125.5958431,7.076209
AI-generated Address,"456 Aurora St., Barangay Bagong Ilog, Pasig City","Barangay Bagong Ilog, Pasig City","Bahay Pamahalaan ng Barangay Bagong Ilog, Sergeant Pascua Street, Green Valley Subdivision, Bagong Ilog, Pasig, Eastern Manila District, Metro Manila, 1600, Pilipinas",121.07110961112016,14.56461215
AI-generated Address,"Barangay Magallanes, Makati City","Barangay Magallanes, Makati City, Philippines","Magallanes Village Barangay Hall, Santiago Street, Ecology Village San EDSA Sector, Magallanes, District I, Makati, Southern Manila District, Metro Manila, 1232, Pilipinas",121.01629575,14.5393362
AI-generated Address,"123 J.P. Rizal St., Barangay Poblacion, Makati City, Metro Manila","J.P. Rizal Street, Poblacion, Makati City, Metro Manila.","Jose P. Rizal Avenue, Bel-Air Village Phase I and II, Poblacion, District I, Makati, Southern Manila District, Metro Manila, 1210, Pilipinas",121.0310891,14.5675641
AI-generated Address,"#156 J. P. Rizal St., Barangay Poblacion, Makati City","J. P. Rizal Street, Poblacion, Makati City","Jose P. Rizal Avenue, Bel-Air Village Phase I and II, Poblacion, District I, Makati, Southern Manila District, Metro Manila, 1210, Pilipinas",121.0319652,14.5674146
AI-generated Address,"Block 2 Lot 7 Bayview Homes, Barangay San Jose, Navotas City","Barangay San Jose, Navotas City.","San Jose Barangay Hall, Governor A. Pascual Street, Sipac-Almacen, Navotas, Northern Manila District, Metro Manila, 1485, Pilipinas",120.94179104483472,14.66446065
AI-generated Address,"Lot 22, San Rafael Subdivision, Barangay San Vicente, San Pedro City","Barangay San Vicente, San Pedro City, Philippines.","San Vicente Barangay Hall, San Vicente Road, Maharlika, San Vicente, Sitio Maharlika, San Pedro, Laguna, Calabarzon, 4023, Pilipinas",121.0480344,14.3569107
AI-generated Address,"Lot 8, Block 3, Pilar Village, Las Piñas City","Pilar Village, Las Piñas City.","Seventh-Day Adventist Church of Las Piñas City, 1, Mercury Street, Pilar Village Phase 4, Pilar, 2nd District, Southern Manila District, Metro Manila, 1750, Pilipinas",121.01055016442643,14.41754225
AI-generated Address,"Block 5 Lot 12 Mahogany St., Barangay Santa Cruz, Laguna","Mahogany Street, Santa Cruz, Laguna","Mahogany Street, Montserrat Subdivision, Santo Angel Sur, Santa Cruz, Laguna, Calabarzon, 4009, Pilipinas",121.4106968,14.2806724
AI-generated Address,"Unit 2002 Sun Residences, Welcome Rotonda, Quezon City","Sun Residences, Welcome Rotonda, Quezon City","Sun Residences Tower 2, Mabuhay Rotonda, Santa Teresita, Santa Mesa Heights, 1st District, Quezon City, Eastern Manila District, Metro Manila, 1114, Pilipinas",121.0010579308282,14.6179072
AI-generated Address,"3F Paseo Center, 8757 Paseo de Roxas, Makati City","Paseo Center, Paseo de Roxas, Makati City","Bacolod Chicken Inasal, 8757, Paseo de Roxas, Salcedo, Bel-Air, District I, Makati, Southern Manila District, Metro Manila, 1226, Pilipinas",121.0229778,14.5576129
AI-generated Address,"3F Paseo Center, 8757 Paseo de Roxas, Makati City","Paseo Center, Paseo de Roxas, Makati City.","Bacolod Chicken Inasal, 8757, Paseo de Roxas, Salcedo, Bel-Air, District I, Makati, Southern Manila District, Metro Manila, 1226, Pilipinas",121.0229778,14.5576129
AI-generated Address,"Unit 402, Tower 1, The Residences at Greenbelt, Legazpi Village, Makati City","The Residences at Greenbelt, Legazpi Village, Makati City","7-Eleven, A. Arnaiz Avenue, Legazpi, San Lorenzo, District I, Makati, Southern Manila District, Metro Manila, 1229, Pilipinas",121.020409,14.551089
AI-generated Address,"12 Alabang Hills Village, Muntinlupa City","Alabang Hills Village, Muntinlupa City","Alabang Hills Village, Muntinlupa, Southern Manila District, Metro Manila, 1789, Pilipinas",121.03270137933303,14.4342821
AI-generated Address,"Unit 302, Avida Towers, Madrigal Business Park, Muntinlupa City","Avida Towers, Madrigal Business Park, Muntinlupa City","Avida Towers Alabang, Alabang-Zapote Service Road, Ayala Alabang, Muntinlupa, Southern Manila District, Metro Manila, 1780, Pilipinas",121.02663117764573,14.42728215
AI-generated Address,"Lot 5, Block 12, Phase 3, Dasmarinas Village, Makati City","Phase 3, Dasmarinas Village, Makati City","Dasmariñas Village, District I, Makati, Southern Manila District, Metro Manila, Pilipinas",121.02619788147592,14.54076535
AI-generated Address,"Lot 5, Block 12, Phase 3, Dasmarinas Village, Makati City","Dasmarinas Village, Makati City","Dasmariñas Village, District I, Makati, Southern Manila District, Metro Manila, Pilipinas",121.02619788147592,14.54076535
AI-generated Address,"Lot 5, Block 12, Phase 3, Dasmarinas Village, Makati City","Dasmarinas Village, Makati City.","Dasmariñas Village, District I, Makati, Southern Manila District, Metro Manila, Pilipinas",121.02619788147592,14.54076535
AI-generated Address,"125 Main Street, Barangay Holy Spirit, Quezon City","Barangay Holy Spirit, Quezon City","Barangay (Holy Spirit) Health Center, Faustino Street, Holy Spirit, 2nd District, Quezon City, Eastern Manila District, Metro Manila, 1127, Pilipinas",121.07660848454384,14.683842899999998
AI-generated Address,"Lot 5 Block 2 Acacia Avenue, Ayala Alabang Village, Muntinlupa City","Acacia Avenue, Ayala Alabang Village, Muntinlupa City","Acacia Avenue, Ayala Alabang, Muntinlupa, Southern Manila District, Metro Manila, 1780, Pilipinas",121.0143385,14.4068049
AI-generated Address,"Lot 5 Block 2 Acacia Avenue, Ayala Alabang Village, Muntinlupa City","Acacia Avenue, Ayala Alabang Village, Muntinlupa City.","Acacia Avenue, Ayala Alabang, Muntinlupa, Southern Manila District, Metro Manila, 1780, Pilipinas",121.0143385,14.4068049
AI-generated Address,"Blk 7 Lot 25, Phase 2, Camella Homes, Barangay San Nicolas, Bacoor City","Phase 2, Camella Homes, San Nicolas, Bacoor City","Senior High School in San Nicholas III - Bacoor City, Diamond Street, Molino VII, San Nicolas III, Molino, Bacoor, Cavite, Calabarzon, 4102, Pilipinas",120.993029425,14.40729565
AI-generated Address,"Lot 5, Block 10, Dasmariñas Village, Barangay Dasmariñas, Makati City","Dasmariñas Village, Barangay Dasmariñas, Makati City","Dasmariñas Village Pavilion, 1419, Campanilla Street, Bougainvilla Place, Dasmariñas Village, District I, Makati, Southern Manila District, Metro Manila, 1231, Pilipinas",121.0303769,14.537293
AI-generated Address,"Lot 5, Block 10, Dasmariñas Village, Barangay Dasmariñas, Makati City","Dasmariñas Village, Dasmariñas, Makati City","Dasmariñas Village Basketball Court, Calumpang Street, Dasmariñas Village, District I, Makati, Southern Manila District, Metro Manila, 1222, Pilipinas",121.029976722985,14.5371293
AI-generated Address,"234 Dr. A. Santos Avenue, Barangay BF Homes, Parañaque City","Dr. A. Santos Avenue, BF Homes, Parañaque City","Doctor A. Santos Avenue, Water Fun Condominium, Sucat, Muntinlupa, Southern Manila District, Metro Manila, 1719, Pilipinas",121.045509,14.4536543
AI-generated Address,"654 Aguirre Avenue, Barangay BF Homes, Parañaque City","Aguirre Avenue, BF Homes, Parañaque City","Bridges of Hope Rehabilitation Center - Parañaque City, 364, Aguirre Avenue, BF Homes Phase 3, BF Homes, Parañaque, Southern Manila District, Metro Manila, 1700, Pilipinas",121.00570974656743,14.4567976
AI-generated Address,"654 Aguirre Avenue, Barangay BF Homes, Parañaque City","654 Aguirre Avenue, BF Homes, Parañaque City","Bridges of Hope Rehabilitation Center - Parañaque City, 364, Aguirre Avenue, BF Homes Phase 3, BF Homes, Parañaque, Southern Manila District, Metro Manila, 1700, Pilipinas",121.00570974656743,14.4567976
AI-generated Address,"678 Park Avenue, Barangay San Lorenzo, Makati City","Barangay San Lorenzo, Makati City","San Lorenzo Barangay hall, Amorsolo Street, San Lorenzo, District I, Makati, Southern Manila District, Metro Manila, 1223, Pilipinas",121.01825449480717,14.54510955
AI-generated Address,"Lot 5, Block 7, Phase 4, Town and Country Southville, Biñan, Laguna","Town and Country Southville, Biñan, Laguna","Town and Country Southville, Albania Street, Town & Country Southville, Biñan, Laguna, Calabarzon, 4024, Pilipinas",121.0720382,14.310054
AI-generated Address,"Lot 5, Block 7, Phase 4, Town and Country Southville, Biñan, Laguna","Town and Country Southville, Biñan, Laguna.","Town and Country Southville, Albania Street, Town & Country Southville, Biñan, Laguna, Calabarzon, 4024, Pilipinas",121.0720382,14.310054
AI-generated Address,"Block 5 Lot 10, Phase 1, BF Homes, Parañaque City","BF Homes, Parañaque City","NISSAN PARAÑAQUE CITY, Doctor A. Santos Avenue, Saint Rita Village, BF Homes, Parañaque, Southern Manila District, Metro Manila, 1700, Pilipinas",121.02940398270404,14.4595635
AI-generated Address,"45 Roxas Ave., Barangay Poblacion, Davao City","Roxas Avenue, Poblacion, Davao City","M. Roxas Avenue, Barangay 32-D, Poblacion, Davao City, Davao Region, 8000, Pilipinas",125.6167259,7.0667363
AI-generated Address,"45 Roxas Ave., Barangay Poblacion, Davao City","45 Roxas Avenue, Barangay Poblacion, Davao City","M. Roxas Avenue, Barangay 32-D, Poblacion, Davao City, Davao Region, 8000, Pilipinas",125.6167259,7.0667363
AI-generated Address,"45 Roxas Ave., Barangay Poblacion, Davao City","Roxas Avenue, Barangay Poblacion, Davao City","M. Roxas Avenue, Barangay 32-D, Poblacion, Davao City, Davao Region, 8000, Pilipinas",125.6167259,7.0667363
AI-generated Address,"999 Davao Street, Barangay Bucana, Davao City","Davao Street, Barangay Bucana, Davao City","Davao City Public Safety Command Center, Aquino Street, Robillo Compound, 76-A Bucana, Davao City, Davao Region, 8000, Pilipinas",125.5993862038693,7.0571149
AI-generated Address,"999 Davao Street, Barangay Bucana, Davao City","999 Davao Street, Barangay Bucana, Davao City","Davao City Public Safety Command Center, Aquino Street, Robillo Compound, 76-A Bucana, Davao City, Davao Region, 8000, Pilipinas",125.5993862038693,7.0571149
AI-generated Address,"999 Davao Street, Barangay Bucana, Davao City","999 Davao Street, Brgy. Bucana, Davao City","Davao City Public Safety Command Center, Aquino Street, Robillo Compound, 76-A Bucana, Davao City, Davao Region, 8000, Pilipinas",125.5993862038693,7.0571149
AI-generated Address,"987 Tomas Morato Ave, Barangay South Triangle, Quezon City","987 Tomas Morato Avenue, South Triangle, Quezon City","Tomas Morato Avenue, South Triangle, Scout Area, 4th District, Quezon City, Eastern Manila District, Metro Manila, 1103, Pilipinas",121.0354928,14.6352414
AI-generated Address,"555 Acacia Lane, Barangay Alabang, Muntinlupa City","Barangay Alabang, Muntinlupa City, Philippines.","Alabang Barangay Hall, Montillano Street, Bunye Compound, Alabang, Muntinlupa, Southern Manila District, Metro Manila, 1781, Pilipinas",121.0446729,14.41903915
AI-generated Address,"45 Roxas Ave., Barangay Poblacion, Davao City","45 Roxas Avenue, Poblacion, Davao City","M. Roxas Avenue, Barangay 32-D, Poblacion, Davao City, Davao Region, 8000, Pilipinas",125.6167259,7.0667363
AI-generated Address,"456 Mindanao Avenue, Barangay Bagong Pag-asa, Quezon City","456 Mindanao Avenue, Bagong Pag-asa, Quezon City","Mindanao Avenue, Bagong Pag-asa, Bago Bantay, 1st District, Quezon City, Eastern Manila District, Metro Manila, 1100, Pilipinas",121.0357794,14.6577015
AI-generated Address,"999 Davao Street, Barangay Bucana, Davao City","999 Davao Street, Barangay Bucana, Davao City.","Davao City Public Safety Command Center, Aquino Street, Robillo Compound, 76-A Bucana, Davao City, Davao Region, 8000, Pilipinas",125.5993862038693,7.0571149
AI-generated Address,"Lot 10 Block 3, Tandang Sora St., Barangay Commonwealth, Quezon City","Barangay Commonwealth, Quezon City, Philippines","Commonwealth Barangay Day Care Center, Payatas Road, Payatas, 2nd District, Quezon City, Eastern Manila District, Metro Manila, 1121, Pilipinas",121.08946337439252,14.7020868
AI-generated Address,"999 Davao Street, Barangay Bucana, Davao City","Davao Street, Barangay Bucana, Davao City.","Davao City Public Safety Command Center, Aquino Street, Robillo Compound, 76-A Bucana, Davao City, Davao Region, 8000, Pilipinas",125.5993862038693,7.0571149
AI-generated Address,"999 Davao Street, Barangay Bucana, Davao City","999 Davao Street, Brgy. Bucana, Davao City.","Davao City Public Safety Command Center, Aquino Street, Robillo Compound, 76-A Bucana, Davao City, Davao Region, 8000, Pilipinas",125.5993862038693,7.0571149
SM malls the Philippines,SM City Pampanga,SM City Pampanga,"SM City Pampanga, San Diego Street, Beverly Place, Lagundi, Pampanga, Central Luzon, 2015, Pilipinas",120.69785754429364,15.05364845
SM malls the Philippines,SM City Clark,SM City Clark,"SM City Clark, Angeles, Central Luzon, Pilipinas",120.58017228764754,15.16884085
SM malls the Philippines,SM Megamall,SM Megamall,"SM Megamall, Garden Way, Wack-Wack Greenhills, Mandaluyong, Eastern Manila District, Metro Manila, 1555, Pilipinas",121.05688311154368,14.5847281
SM malls the Philippines,SM Mall of Asia,SM Mall of Asia,"SM Mall of Asia, Seaside Boulevard, Barangay 76, Zone 10, District 1, Pasay, Southern Manila District, Metro Manila, 1300, Pilipinas",120.98159848166422,14.53520885
SM malls the Philippines,SM Lanang Premier,SM Lanang Premier,"SM Lanang Premier, J. P. Laurel Avenue, Davao Park District, San Antonio, Agdao District, Davao City, Davao Region, 8000, Pilipinas",125.6310312443192,7.0990915
SM malls the Philippines,SM City Mall Tarlac,SM City Mall Tarlac,"SM City Tarlac, MacArthur Highway, Lazatin Subdivision, Tarlac City, Tarlac, Central Luzon, 2300, Pilipinas",120.594519453478,15.477540650000002
SM malls the Philippines,SM City Manila,SM City Manila,"SM City Manila, A. Villegas Street, 659, Ermita, Fifth District, Manila, Capital District, Metro Manila, 1000, Pilipinas",120.98311560274628,14.5897886
SM malls the Philippines,SM City Bacolod,SM City Bacolod,"SM City Bacolod, Bacolod, Western Visayas, Pilipinas",122.94435942609356,10.67221445
SM malls the Philippines,SM Aura Premier,SM Aura Premier,"SM Aura Premier, McKinley Parkway, Fort Bonifacio, Taguig, Southern Manila District, Metro Manila, 1635, Pilipinas",121.05400364248976,14.54603955
SM malls the Philippines,SM City Cebu,SM City Cebu,"SM City Cebu, Juan Luna Avenue, Carreta, Cebu City, Central Visayas, 6000, Pilipinas",123.91863679328657,10.3117049
SM malls the Philippines,SM North EDSA,SM North EDSA,"SM North Edsa, Bago Bantay, 1st District, Quezon City, Eastern Manila District, Metro Manila, Pilipinas",121.03132311682958,14.65709255
SM malls the Philippines,SM City Davao,SM City Davao,"SM City Davao, Quimpo Boulevard, Ecoland, 76-A Bucana, Davao City, Davao Region, 8000, Pilipinas",125.58865493401892,7.04900775
SM malls the Philippines,SM City Baguio,SM City Baguio,"SM City Baguio, SM City Baguio Basement Parking, Session Road, District 10, Baguio, 2600, Pilipinas",120.59917396576698,16.408943
SM malls the Philippines,SM Seaside City Cebu,SM Seaside City Cebu,"SM Seaside City Cebu, Cebu City, Central Visayas, 6000, Pilipinas",123.87956714430705,10.2812836
SM malls the Philippines,SM City Marikina,SM City Marikina,"SM City Marikina, District I, Marikina, Eastern Manila District, Metro Manila, 1801, Pilipinas",121.08405608178566,14.6258682
SM malls the Philippines,SM City Lipa,SM City Lipa,"SM City Lipa, Lipa City Grand Terminal (UV Express), Balintawak, Lipa, Batangas, Calabarzon, 4217, Pilipinas",121.1628868516074,13.95466955
SM malls the Philippines,SM City Sorsogon,SM City Sorsogon,"SM City Sorsogon, Balogo, Sorsogon, Bicol Region, Pilipinas",124.01916920066142,12.97570655
SM malls the Philippines,SM City San Fernando,SM City San Fernando,"SM City San Fernando Downtown, V. Tiomico Street, Santo Rosario, Santa Lucia, San Fernando, Pampanga, Central Luzon, 2000, Pilipinas",120.69233711560534,15.0278096
SM malls the Philippines,SM City Baliwag,SM City Baliwag,"SM City Baliwag, Doña Remedios Trinidad Highway, Pagala, Tibag, Baliwag, Bulacan, Central Luzon, 3006, Pilipinas",120.89076816662876,14.9605677
SM malls the Philippines,SM City Muntinlupa,SM City Muntinlupa,"SM Appliances, Oakland Street, Tunasan, Muntinlupa, Southern Manila District, Metro Manila, 1773, Pilipinas",121.0451798,14.3775022
SM malls the Philippines,SM City Bacoor,SM City Bacoor,"SM City Bacoor, Bacoor, Cavite, Calabarzon, 4102, Pilipinas",120.95028949981072,14.44458075
SM malls the Philippines,SM City BF Parañaque,SM City BF Parañaque,"SM City BF Parañaque, Parañaque, Southern Manila District, Metro Manila, Pilipinas",121.0332103197886,14.4573274
SM malls the Philippines,SM City Marilao,SM City Marilao,"SM City Marilao, Marilao, Bulacan, Central Luzon, 3019, Pilipinas",120.94831574615506,14.75624695
SM malls the Philippines,SM Center Ormoc,SM Center Ormoc,"SM Center Ormoc, Real Street, Alegria, Don Felipe Larrazabal, Cogon Combado, Ormoc, 4th District, Leyte, Eastern Visayas, 6541, Pilipinas",124.60771066411787,11.01095135
SM malls the Philippines,SM Southmall,SM Southmall,"SM Southmall, Las Piñas, 2nd District, Southern Manila District, Metro Manila, Pilipinas",121.01007505421336,14.4324991
SM malls the Philippines,SM City Lucena,SM City Lucena,"SM City Lucena, Lucena, 2nd District, Calabarzon, 4301, Pilipinas",121.6251585973688,13.94084415
SM malls the Philippines,SM City Novaliches,SM City Novaliches,"SM City Novaliches, 5th District, Quezon City, Eastern Manila District, Metro Manila, 1116, Pilipinas",121.03733876944406,14.70801805
SM malls the Philippines,SM City Valenzuela,SM City Valenzuela,"SM City Valenzuela, MacArthur Highway, Karuhatan, 2nd District, Valenzuela, Northern Manila District, Metro Manila, 1441, Pilipinas",120.9771004836136,14.68571095
SM malls the Philippines,SM City General Santos,SM City General Santos,"SM City General Santos, San Miguel Street, Dadiangas East, General Santos, Soccsksargen, 9500, Pilipinas",125.18118546477707,6.11607505
SM malls the Philippines,SM City San Pablo,SM City San Pablo,"SM City San Pablo, Maharlika Highway, San Rafael, San Pablo, Laguna, Calabarzon, 4000, Pilipinas",121.30212972443138,14.07141685
SM malls the Philippines,SM City Cabanatuan,SM City Cabanatuan,"SM City Cabanatuan, Maharlika Highway, San Juan Poblacion, Cabanatuan, Nueva Ecija, Central Luzon, 3100, Pilipinas",120.95507385664284,15.46684965
SM malls the Philippines,SM City Taytay,SM City Taytay,"SM City Taytay, Taytay Diversion Road, Bukal II, Dolores, Taytay, Rizal, Calabarzon, 1920, Pilipinas",121.14001120857996,14.56615445
SM malls the Philippines,SM City Olongapo Central,SM City Olongapo Central,"SM City Olongapo Central, Canda Street, East Bajac-Bajac, Mabayuan, Olongapo, Central Luzon, 2200, Pilipinas",120.28286548165674,14.8363313
SM malls the Philippines,SM City Dasmarinas,SM City Dasmarinas,"SM City Dasmariñas, Main Roadway, Sampaloc 1, Sampaloc, Dasmariñas, Cavite, Calabarzon, 4114, Pilipinas",120.95676065965102,14.3018481
SM malls the Philippines,SM City Iloilo,SM City Iloilo,"SM City Iloilo, Benigno S. Aquino, Jr. Avenue, Bakhaw, Mandurriao, Bolilao, Iloilo City, Western Visayas, 5000, Pilipinas",122.55104805,10.7141904
SM malls the Philippines,SM City Makati,SM City Makati,"SM Jazz Residences, District I, Makati, Southern Manila District, Metro Manila, 1210, Pilipinas",121.02178204439753,14.56383335
SM malls the Philippines,SM City San Lazaro,SM City San Lazaro,"SM City San Lazaro, Lacson Avenue, Santa Cruz, Third District, Manila, Capital District, Metro Manila, 1014, Pilipinas",120.98588341694072,14.6182232
SM malls the Philippines,SM City Dasmariñas,SM City Dasmariñas,"SM City Dasmariñas, Main Roadway, Sampaloc 1, Sampaloc, Dasmariñas, Cavite, Calabarzon, 4114, Pilipinas",120.95676065965102,14.3018481
SM malls the Philippines,SM City Mindpro,SM City Mindpro,"SM City Mindpro, La Purisima Street, Zone IV, Santa Catalina, Zamboanga City, Zamboanga Peninsula, 7000, Pilipinas",122.07618982046846,6.9080188
SM malls the Philippines,SM City Balanga,SM City Balanga,"SM City Bataan, Lerma Street, Tenejero, San Jose, Tuyo, Balanga, Bataan, Central Luzon, 2100, Pilipinas",120.53693714511247,14.6830299
SM malls the Philippines,SM City Telabastagan,SM City Telabastagan,"SM City Telabastagan, MacArthur Highway, Telabastagan, San Fernando, Pampanga, Central Luzon, 2000, Pilipinas",120.60171919046928,15.1209419
SM malls the Philippines,SM City Butuan,SM City Butuan,"SM City Butuan, J.C. Aquino Avenue, Poblacion, Diego Silang, Butuan, Caraga, 8600, Pilipinas",125.53372896006248,8.94548755
SM malls the Philippines,SM City Naga,SM City Naga,"SM City Naga, Naga, Bicol Region, 4400, Pilipinas",123.19037322548368,13.621216
SM malls the Philippines,SM City Puerto Princesa,SM City Puerto Princesa,"SM City Puerto Princesa, Matahimik, Puerto Princesa, Mimaropa, Pilipinas",118.73991713965336,9.74338435
SM malls the Philippines,SM City Legazpi,SM City Legazpi,"SM City Legazpi, Terminal Road 2, Cabagñan West, Cabagñan East, Legazpi, Albay, Bicol Region, 4500, Pilipinas",123.7447001140152,13.1442541
SM malls the Philippines,SM City Fairview,SM City Fairview,"SM City Fairview, Quirino Highway, Greater Lagro, 5th District, Quezon City, Eastern Manila District, Metro Manila, 1118, Pilipinas",121.05839367019176,14.7334933
SM malls the Philippines,SM City Consolacion,SM City Consolacion,"SM City Consolacion, Consolacion, Cebu, Central Visayas, 6001, Pilipinas",123.96432789310994,10.38041885
SM malls the Philippines,SM City Rosales,SM City Rosales,"SM City Rosales, MacArthur Highway, Carmen West, San Bartolome, Rosales, Pangasinan, Ilocos Region, 2441, Pilipinas",120.6024718252474,15.87904705
SM malls the Philippines,SM City Masinag,SM City Masinag,"SM City Masinag, Antipolo, Rizal, Calabarzon, Pilipinas",121.12042167009211,14.62577545
SM malls the Philippines,SM City Calamba,SM City Calamba,"SM City Calamba, Real, Calamba, Laguna, Calabarzon, 4027, Pilipinas",121.15493455699422,14.2031846
SM malls the Philippines,SM City Olongapo,SM City Olongapo,"SM City Olongapo Central, Canda Street, East Bajac-Bajac, Mabayuan, Olongapo, Central Luzon, 2200, Pilipinas",120.28286548165674,14.8363313
SM malls the Philippines,SM Center Imus,SM Center Imus,"SM Center Imus, Imus, Cavite, Calabarzon, 4103, Pilipinas",120.92444736601846,14.40706145
SM malls the Philippines,SM City Urdaneta Central,SM City Urdaneta Central,"SM City Urdaneta Central, Urdaneta, Pangasinan, Ilocos Region, Pilipinas",120.57273082149833,15.97196315
SM malls the Philippines,SM City Sangandaan,SM City Sangandaan,"SM Supermarket, M. H. del Pilar Street, Barangay 3, Zone 1, Sangandaan, District 1, Caloocan, Northern Manila District, Metro Manila, 1408, Pilipinas",120.9713548,14.6585125
SM malls the Philippines,SM City North EDSA,SM City North EDSA,"SM North Edsa, Bago Bantay, 1st District, Quezon City, Eastern Manila District, Metro Manila, Pilipinas",121.03132311682958,14.65709255
SM malls the Philippines,SM Center Angono,SM Center Angono,"Save More Market, Angono Diversion Road, Edenville, San Isidro, Angono, Rizal, Calabarzon, 1930, Pilipinas",121.1544832,14.5306135
SM malls the Philippines,SM City Batangas,SM City Batangas,"SM City Batangas, Juaning Road, Pastor Village, Pallocan West, Batangas, Calabarzon, 4200, Pilipinas",121.06894755,13.75567375
SM malls the Philippines,SM City Cauayan,SM City Cauayan,"SM City Cauayan, P. Burgos Street, District I, Cauayan, Isabela, Cagayan Valley, 3305, Pilipinas",121.76940040828708,16.937049899999998
SM malls the Philippines,SM City Sta. Rosa,SM City Sta. Rosa,"SM City Sta. Rosa, National Highway 1, Tagapo, Santa Rosa, Laguna, Calabarzon, 4026, Pilipinas",121.0993343,14.3139492
SM malls the Philippines,SM City Olongapo Downtown,SM City Olongapo Downtown,"SM City Olongapo Downtown, Gordon Avenue, New Kalalake, Banicain, Olongapo, Central Luzon, 2200, Pilipinas",120.28313287778462,14.8262959
SM malls the Philippines,SM City Laoag,SM City Laoag,"SM City Laoag, Nangalisan West, Brgy. 51-B, Ilocos Norte, Ilocos Region, Pilipinas",120.58610139361684,18.1880521
